[
	{
		"locality_id": "1",
		"locality_name": "Abbotsdale",
		"locality_long_name": "Abbotsdale",
		"suburb_name": "CBD",
		"town_name": "Abbotsdale",
		"postal_code": "7300",
		"province_short_code": "WC",
		"province": "Western Cape",
		"longitude": "18.679682",
		"latitude": "-33.489726",
		"mds_collivery_suburb_name": "CBD",
		"mds_collivery_town_name": "Abbotsdale",
		"mds_collivery_suburb_id": "6073",
		"mds_collivery_town_id": "12715",
		"mds_collivery_town_latitude": "-33.489925",
		"mds_collivery_town_longitude": "18.679914"
	},
	{
		"locality_id": "2",
		"locality_name": "Aberdeen",
		"locality_long_name": "Aberdeen",
		"suburb_name": "CBD",
		"town_name": "Aberdeen",
		"postal_code": "6270",
		"province_short_code": "EC",
		"province": "Eastern Cape",
		"longitude": "24.073799",
		"latitude": "-32.493",
		"mds_collivery_suburb_name": "CBD",
		"mds_collivery_town_name": "Aberdeen",
		"mds_collivery_suburb_id": "4319",
		"mds_collivery_town_id": "2",
		"mds_collivery_town_latitude": "-32.476196",
		"mds_collivery_town_longitude": "24.036908"
	},
	{
		"locality_id": "4",
		"locality_name": "Acornhoek",
		"locality_long_name": "Acornhoek",
		"suburb_name": "CBD",
		"town_name": "Acornhoek",
		"postal_code": "1360",
		"province_short_code": "MP",
		"province": "Mpumalanga",
		"longitude": "31.1021",
		"latitude": "-24.5877",
		"mds_collivery_suburb_name": "CBD",
		"mds_collivery_town_name": "Acornhoek",
		"mds_collivery_suburb_id": "4267",
		"mds_collivery_town_id": "472",
		"mds_collivery_town_latitude": "-24.605656",
		"mds_collivery_town_longitude": "31.087492"
	},
	{
		"locality_id": "5",
		"locality_name": "Greenvalley",
		"locality_long_name": "Greenvalley, Acornhoek",
		"suburb_name": "Greenvalley",
		"town_name": "Acornhoek",
		"postal_code": "0000",
		"province_short_code": "MP",
		"province": "Mpumalanga",
		"longitude": "31.027776",
		"latitude": "-24.603028",
		"mds_collivery_suburb_name": "Greenvalley",
		"mds_collivery_town_name": "Acornhoek",
		"mds_collivery_suburb_id": "6807",
		"mds_collivery_town_id": "472",
		"mds_collivery_town_latitude": "-24.605656",
		"mds_collivery_town_longitude": "31.087492"
	},
	{
		"locality_id": "6",
		"locality_name": "Adams Mission",
		"locality_long_name": "Adams Mission",
		"suburb_name": "CBD",
		"town_name": "Adams Mission",
		"postal_code": "4100",
		"province_short_code": "KZN",
		"province": "KwaZulu-Natal",
		"longitude": "30.815701",
		"latitude": "-30.0359",
		"mds_collivery_suburb_name": "CBD",
		"mds_collivery_town_name": "Adams Mission",
		"mds_collivery_suburb_id": "4689",
		"mds_collivery_town_id": "746",
		"mds_collivery_town_latitude": "-30.031644",
		"mds_collivery_town_longitude": "30.812564"
	},
	{
		"locality_id": "7",
		"locality_name": "Addo",
		"locality_long_name": "Addo",
		"suburb_name": "CBD",
		"town_name": "Addo",
		"postal_code": "6105",
		"province_short_code": "EC",
		"province": "Eastern Cape",
		"longitude": "25.6943",
		"latitude": "-33.553799",
		"mds_collivery_suburb_name": "CBD",
		"mds_collivery_town_name": "Addo",
		"mds_collivery_suburb_id": "4111",
		"mds_collivery_town_id": "425",
		"mds_collivery_town_latitude": "-33.483333",
		"mds_collivery_town_longitude": "25.750000"
	},
	{
		"locality_id": "8",
		"locality_name": "Adelaide",
		"locality_long_name": "Adelaide",
		"suburb_name": "CBD",
		"town_name": "Adelaide",
		"postal_code": "5760",
		"province_short_code": "EC",
		"province": "Eastern Cape",
		"longitude": "26.2911",
		"latitude": "-32.714699",
		"mds_collivery_suburb_name": "CBD",
		"mds_collivery_town_name": "Adelaide",
		"mds_collivery_suburb_id": "4089",
		"mds_collivery_town_id": "4",
		"mds_collivery_town_latitude": "-32.707145",
		"mds_collivery_town_longitude": "26.295238"
	},
	{
		"locality_id": "9",
		"locality_name": "Afguns",
		"locality_long_name": "Afguns",
		"suburb_name": "CBD",
		"town_name": "Afguns",
		"postal_code": "0534",
		"province_short_code": "LP",
		"province": "Limpopo",
		"longitude": "27.705999",
		"latitude": "-23.813801",
		"mds_collivery_suburb_name": "CBD",
		"mds_collivery_town_name": "Afguns",
		"mds_collivery_suburb_id": "4268",
		"mds_collivery_town_id": "473",
		"mds_collivery_town_latitude": "-23.813801",
		"mds_collivery_town_longitude": "27.705999"
	},
	{
		"locality_id": "10",
		"locality_name": "Aggeneys",
		"locality_long_name": "Aggeneys",
		"suburb_name": "CBD",
		"town_name": "Aggeneys",
		"postal_code": "8893",
		"province_short_code": "NC",
		"province": "Northern Cape",
		"longitude": "18.828501",
		"latitude": "-29.216299",
		"mds_collivery_suburb_name": "CBD",
		"mds_collivery_town_name": "Aggeneys",
		"mds_collivery_suburb_id": "4269",
		"mds_collivery_town_id": "474",
		"mds_collivery_town_latitude": "-29.220792",
		"mds_collivery_town_longitude": "18.926452"
	},
	{
		"locality_id": "11",
		"locality_name": "Agincourt",
		"locality_long_name": "Agincourt",
		"suburb_name": "CBD",
		"town_name": "Agincourt",
		"postal_code": "1368",
		"province_short_code": "MP",
		"province": "Mpumalanga",
		"longitude": "31.220381",
		"latitude": "-24.82836",
		"mds_collivery_suburb_name": "CBD",
		"mds_collivery_town_name": "Agincourt",
		"mds_collivery_suburb_id": "6329",
		"mds_collivery_town_id": "13218",
		"mds_collivery_town_latitude": "-24.828360",
		"mds_collivery_town_longitude": "31.220381"
	},
	{
		"locality_id": "12",
		"locality_name": "Agulhas",
		"locality_long_name": "Agulhas",
		"suburb_name": "CBD",
		"town_name": "Agulhas",
		"postal_code": "7287",
		"province_short_code": "WC",
		"province": "Western Cape",
		"longitude": "20.0112",
		"latitude": "-34.8255",
		"mds_collivery_suburb_name": "CBD",
		"mds_collivery_town_name": "Agulhas",
		"mds_collivery_suburb_id": "4270",
		"mds_collivery_town_id": "475",
		"mds_collivery_town_latitude": "-34.816300",
		"mds_collivery_town_longitude": "20.015190"
	},
	{
		"locality_id": "13",
		"locality_name": "Airforce Base Makhado",
		"locality_long_name": "Airforce Base Makhado",
		"suburb_name": "CBD",
		"town_name": "Airforce Base Makhado",
		"postal_code": "0920",
		"province_short_code": "LP",
		"province": "Limpopo",
		"longitude": "29.904699",
		"latitude": "-23.046301",
		"mds_collivery_suburb_name": "CBD",
		"mds_collivery_town_name": "Airforce Base Makhado (Braambos)",
		"mds_collivery_suburb_id": "5104",
		"mds_collivery_town_id": "185",
		"mds_collivery_town_latitude": "-23.158614",
		"mds_collivery_town_longitude": "29.698927"
	},
	{
		"locality_id": "14",
		"locality_name": "CBD",
		"locality_long_name": "CBD, Akron",
		"suburb_name": "CBD",
		"town_name": "Akron",
		"postal_code": "8613",
		"province_short_code": "NW",
		"province": "North West",
		"longitude": "23.75",
		"latitude": "-26.8",
		"mds_collivery_suburb_name": "CBD",
		"mds_collivery_town_name": "Akron",
		"mds_collivery_suburb_id": "5592",
		"mds_collivery_town_id": "11667",
		"mds_collivery_town_latitude": "-26.800000",
		"mds_collivery_town_longitude": "23.750000"
	},
	{
		"locality_id": "15",
		"locality_name": "CBD",
		"locality_long_name": "CBD, Akron",
		"suburb_name": "CBD",
		"town_name": "Akron",
		"postal_code": "0000",
		"province_short_code": "NW",
		"province": "North West",
		"longitude": "28.934298",
		"latitude": "-28.70915",
		"mds_collivery_suburb_name": "CBD",
		"mds_collivery_town_name": "Akron",
		"mds_collivery_suburb_id": "6216",
		"mds_collivery_town_id": "11667",
		"mds_collivery_town_latitude": "-26.800000",
		"mds_collivery_town_longitude": "23.750000"
	},
	{
		"locality_id": "16",
		"locality_name": "Albert Falls",
		"locality_long_name": "CBD, Albert Falls",
		"suburb_name": "CBD",
		"town_name": "Albert Falls",
		"postal_code": "0000",
		"province_short_code": "KZN",
		"province": "KwaZulu-Natal",
		"longitude": "30.430401",
		"latitude": "-29.4319",
		"mds_collivery_suburb_name": "CBD",
		"mds_collivery_town_name": "Albert Falls",
		"mds_collivery_suburb_id": "4106",
		"mds_collivery_town_id": "9",
		"mds_collivery_town_latitude": "-29.431900",
		"mds_collivery_town_longitude": "30.430401"
	},
	{
		"locality_id": "17",
		"locality_name": "Albertinia",
		"locality_long_name": "CBD, Albertinia",
		"suburb_name": "CBD",
		"town_name": "Albertinia",
		"postal_code": "6695",
		"province_short_code": "WC",
		"province": "Western Cape",
		"longitude": "21.593399",
		"latitude": "-34.202999",
		"mds_collivery_suburb_name": "CBD",
		"mds_collivery_town_name": "Albertinia",
		"mds_collivery_suburb_id": "4250",
		"mds_collivery_town_id": "5",
		"mds_collivery_town_latitude": "-34.208765",
		"mds_collivery_town_longitude": "21.573660"
	},
	{
		"locality_id": "18",
		"locality_name": "Alberante",
		"locality_long_name": "Alberante, Alberton",
		"suburb_name": "Alberante",
		"town_name": "Alberton",
		"postal_code": "1449",
		"province_short_code": "GP",
		"province": "Gauteng",
		"longitude": "28.107879",
		"latitude": "-26.278456",
		"mds_collivery_suburb_name": "Alberante",
		"mds_collivery_town_name": "Alberton",
		"mds_collivery_suburb_id": "22",
		"mds_collivery_town_id": "13308",
		"mds_collivery_town_latitude": "-26.322613",
		"mds_collivery_town_longitude": "28.120926"
	},
	{
		"locality_id": "19",
		"locality_name": "Alberton",
		"locality_long_name": "Alberton, Alberton",
		"suburb_name": "Alberton",
		"town_name": "Alberton",
		"postal_code": "1448",
		"province_short_code": "GP",
		"province": "Gauteng",
		"longitude": "28.126101",
		"latitude": "-26.255301",
		"mds_collivery_suburb_name": "Alberton",
		"mds_collivery_town_name": "Alberton",
		"mds_collivery_suburb_id": "24",
		"mds_collivery_town_id": "13308",
		"mds_collivery_town_latitude": "-26.322613",
		"mds_collivery_town_longitude": "28.120926"
	},
	{
		"locality_id": "20",
		"locality_name": "Albertsdal",
		"locality_long_name": "Albertsdal, Alberton",
		"suburb_name": "Albertsdal",
		"town_name": "Alberton",
		"postal_code": "1448",
		"province_short_code": "GP",
		"province": "Gauteng",
		"longitude": "28.107879",
		"latitude": "-26.348811",
		"mds_collivery_suburb_name": "Albertsdal",
		"mds_collivery_town_name": "Alberton",
		"mds_collivery_suburb_id": "25",
		"mds_collivery_town_id": "13308",
		"mds_collivery_town_latitude": "-26.322613",
		"mds_collivery_town_longitude": "28.120926"
	},
	{
		"locality_id": "21",
		"locality_name": "Alrode",
		"locality_long_name": "Alrode, Alberton",
		"suburb_name": "Alrode",
		"town_name": "Alberton",
		"postal_code": "1451",
		"province_short_code": "GP",
		"province": "Gauteng",
		"longitude": "28.129823",
		"latitude": "-26.304918",
		"mds_collivery_suburb_name": "Alrode",
		"mds_collivery_town_name": "Alberton",
		"mds_collivery_suburb_id": "39",
		"mds_collivery_town_id": "13308",
		"mds_collivery_town_latitude": "-26.322613",
		"mds_collivery_town_longitude": "28.120926"
	},
	{
		"locality_id": "22",
		"locality_name": "Alrode South",
		"locality_long_name": "Alrode South, Alberton",
		"suburb_name": "Alrode South",
		"town_name": "Alberton",
		"postal_code": "1451",
		"province_short_code": "GP",
		"province": "Gauteng",
		"longitude": "28.119583",
		"latitude": "-26.35444",
		"mds_collivery_suburb_name": "Alrode South",
		"mds_collivery_town_name": "Alberton",
		"mds_collivery_suburb_id": "40",
		"mds_collivery_town_id": "13308",
		"mds_collivery_town_latitude": "-26.322613",
		"mds_collivery_town_longitude": "28.120926"
	},
	{
		"locality_id": "23",
		"locality_name": "Arton",
		"locality_long_name": "Arton, Alberton",
		"suburb_name": "Arton",
		"town_name": "Alberton",
		"postal_code": "1449",
		"province_short_code": "GP",
		"province": "Gauteng",
		"longitude": "28.119583",
		"latitude": "-26.338207",
		"mds_collivery_suburb_name": "Arton",
		"mds_collivery_town_name": "Alberton",
		"mds_collivery_suburb_id": "6504",
		"mds_collivery_town_id": "13308",
		"mds_collivery_town_latitude": "-26.322613",
		"mds_collivery_town_longitude": "28.120926"
	},
	{
		"locality_id": "24",
		"locality_name": "Brackendowns",
		"locality_long_name": "Brackendowns, Alberton",
		"suburb_name": "Brackendowns",
		"town_name": "Alberton",
		"postal_code": "1454",
		"province_short_code": "GP",
		"province": "Gauteng",
		"longitude": "28.091784",
		"latitude": "-26.337346",
		"mds_collivery_suburb_name": "Brackendowns",
		"mds_collivery_town_name": "Alberton",
		"mds_collivery_suburb_id": "215",
		"mds_collivery_town_id": "13308",
		"mds_collivery_town_latitude": "-26.322613",
		"mds_collivery_town_longitude": "28.120926"
	},
	{
		"locality_id": "25",
		"locality_name": "Brackenhurst",
		"locality_long_name": "Brackenhurst, Alberton",
		"suburb_name": "Brackenhurst",
		"town_name": "Alberton",
		"postal_code": "1448",
		"province_short_code": "GP",
		"province": "Gauteng",
		"longitude": "28.107181",
		"latitude": "-26.321137",
		"mds_collivery_suburb_name": "Brackenhurst",
		"mds_collivery_town_name": "Alberton",
		"mds_collivery_suburb_id": "216",
		"mds_collivery_town_id": "13308",
		"mds_collivery_town_latitude": "-26.322613",
		"mds_collivery_town_longitude": "28.120926"
	},
	{
		"locality_id": "26",
		"locality_name": "CBD",
		"locality_long_name": "CBD, Alberton",
		"suburb_name": "CBD",
		"town_name": "Alberton",
		"postal_code": "1448",
		"province_short_code": "GP",
		"province": "Gauteng",
		"longitude": "28.120926",
		"latitude": "-26.322613",
		"mds_collivery_suburb_name": "CBD",
		"mds_collivery_town_name": "Alberton",
		"mds_collivery_suburb_id": "6488",
		"mds_collivery_town_id": "13308",
		"mds_collivery_town_latitude": "-26.322613",
		"mds_collivery_town_longitude": "28.120926"
	},
	{
		"locality_id": "27",
		"locality_name": "Eden Park",
		"locality_long_name": "Eden Park, Alberton",
		"suburb_name": "Eden Park",
		"town_name": "Alberton",
		"postal_code": "1455",
		"province_short_code": "GP",
		"province": "Gauteng",
		"longitude": "28.121046",
		"latitude": "-26.379829",
		"mds_collivery_suburb_name": "Eden Park",
		"mds_collivery_town_name": "Alberton",
		"mds_collivery_suburb_id": "6527",
		"mds_collivery_town_id": "13308",
		"mds_collivery_town_latitude": "-26.322613",
		"mds_collivery_town_longitude": "28.120926"
	},
	{
		"locality_id": "28",
		"locality_name": "Eden Park West",
		"locality_long_name": "Eden Park West, Alberton",
		"suburb_name": "Eden Park West",
		"town_name": "Alberton",
		"postal_code": "1455",
		"province_short_code": "GP",
		"province": "Gauteng",
		"longitude": "28.114462",
		"latitude": "-26.371084",
		"mds_collivery_suburb_name": "Eden Park West",
		"mds_collivery_town_name": "Alberton",
		"mds_collivery_suburb_id": "6529",
		"mds_collivery_town_id": "13308",
		"mds_collivery_town_latitude": "-26.322613",
		"mds_collivery_town_longitude": "28.120926"
	},
	{
		"locality_id": "29",
		"locality_name": "Extension 1",
		"locality_long_name": "Extension 1, Alberton",
		"suburb_name": "Extension 1",
		"town_name": "Alberton",
		"postal_code": "1448",
		"province_short_code": "GP",
		"province": "Gauteng",
		"longitude": "28.097175",
		"latitude": "-26.304085",
		"mds_collivery_suburb_name": "Extension 1",
		"mds_collivery_town_name": "Alberton",
		"mds_collivery_suburb_id": "6517",
		"mds_collivery_town_id": "13308",
		"mds_collivery_town_latitude": "-26.322613",
		"mds_collivery_town_longitude": "28.120926"
	},
	{
		"locality_id": "30",
		"locality_name": "Florentia",
		"locality_long_name": "Florentia, Alberton",
		"suburb_name": "Florentia",
		"town_name": "Alberton",
		"postal_code": "1449",
		"province_short_code": "GP",
		"province": "Gauteng",
		"longitude": "28.131286",
		"latitude": "-26.265372",
		"mds_collivery_suburb_name": "Florentia",
		"mds_collivery_town_name": "Alberton",
		"mds_collivery_suburb_id": "692",
		"mds_collivery_town_id": "13308",
		"mds_collivery_town_latitude": "-26.322613",
		"mds_collivery_town_longitude": "28.120926"
	},
	{
		"locality_id": "31",
		"locality_name": "General Albertspark",
		"locality_long_name": "General Albertspark, Alberton",
		"suburb_name": "General Albertspark",
		"town_name": "Alberton",
		"postal_code": "1449",
		"province_short_code": "GP",
		"province": "Gauteng",
		"longitude": "28.122509",
		"latitude": "-26.291589",
		"mds_collivery_suburb_name": "General Albertspark",
		"mds_collivery_town_name": "Alberton",
		"mds_collivery_suburb_id": "741",
		"mds_collivery_town_id": "13308",
		"mds_collivery_town_latitude": "-26.322613",
		"mds_collivery_town_longitude": "28.120926"
	},
	{
		"locality_id": "32",
		"locality_name": "Kromvlei 142-Ir",
		"locality_long_name": "Kromvlei 142-Ir, Alberton",
		"suburb_name": "Kromvlei 142-Ir",
		"town_name": "Alberton",
		"postal_code": "1449",
		"province_short_code": "GP",
		"province": "Gauteng",
		"longitude": "28.072762",
		"latitude": "-26.337322",
		"mds_collivery_suburb_name": "Kromvlei 142-Ir",
		"mds_collivery_town_name": "Alberton",
		"mds_collivery_suburb_id": "6526",
		"mds_collivery_town_id": "13308",
		"mds_collivery_town_latitude": "-26.322613",
		"mds_collivery_town_longitude": "28.120926"
	},
	{
		"locality_id": "33",
		"locality_name": "Mayberry",
		"locality_long_name": "Mayberry, Alberton",
		"suburb_name": "Mayberry",
		"town_name": "Alberton",
		"postal_code": "1448",
		"province_short_code": "GP",
		"province": "Gauteng",
		"longitude": "28.128361",
		"latitude": "-26.339047",
		"mds_collivery_suburb_name": "Mayberry",
		"mds_collivery_town_name": "Alberton",
		"mds_collivery_suburb_id": "6503",
		"mds_collivery_town_id": "13308",
		"mds_collivery_town_latitude": "-26.322613",
		"mds_collivery_town_longitude": "28.120926"
	},
	{
		"locality_id": "34",
		"locality_name": "Mayberry Park",
		"locality_long_name": "Mayberry Park, Alberton",
		"suburb_name": "Mayberry Park",
		"town_name": "Alberton",
		"postal_code": "1481",
		"province_short_code": "GP",
		"province": "Gauteng",
		"longitude": "28.121046",
		"latitude": "-26.325721",
		"mds_collivery_suburb_name": "Mayberry Park",
		"mds_collivery_town_name": "Alberton",
		"mds_collivery_suburb_id": "1303",
		"mds_collivery_town_id": "13308",
		"mds_collivery_town_latitude": "-26.322613",
		"mds_collivery_town_longitude": "28.120926"
	},
	{
		"locality_id": "35",
		"locality_name": "Mayropark",
		"locality_long_name": "Mayropark, Alberton",
		"suburb_name": "Mayropark",
		"town_name": "Alberton",
		"postal_code": "1449",
		"province_short_code": "GP",
		"province": "Gauteng",
		"longitude": "28.12324",
		"latitude": "-26.331343",
		"mds_collivery_suburb_name": "Mayropark",
		"mds_collivery_town_name": "Alberton",
		"mds_collivery_suburb_id": "6532",
		"mds_collivery_town_id": "13308",
		"mds_collivery_town_latitude": "-26.322613",
		"mds_collivery_town_longitude": "28.120926"
	},
	{
		"locality_id": "36",
		"locality_name": "Meyersdal",
		"locality_long_name": "Meyersdal, Alberton",
		"suburb_name": "Meyersdal",
		"town_name": "Alberton",
		"postal_code": "1448",
		"province_short_code": "GP",
		"province": "Gauteng",
		"longitude": "28.09079",
		"latitude": "-26.29188",
		"mds_collivery_suburb_name": "Meyersdal",
		"mds_collivery_town_name": "Alberton",
		"mds_collivery_suburb_id": "1332",
		"mds_collivery_town_id": "13308",
		"mds_collivery_town_latitude": "-26.322613",
		"mds_collivery_town_longitude": "28.120926"
	},
	{
		"locality_id": "37",
		"locality_name": "Meyersdal Nature Estate",
		"locality_long_name": "Meyersdal Nature Estate, Alberton",
		"suburb_name": "Meyersdal Nature Estate",
		"town_name": "Alberton",
		"postal_code": "1448",
		"province_short_code": "GP",
		"province": "Gauteng",
		"longitude": "28.080078",
		"latitude": "-26.285701",
		"mds_collivery_suburb_name": "Meyersdal Nature Estate",
		"mds_collivery_town_name": "Alberton",
		"mds_collivery_suburb_id": "6516",
		"mds_collivery_town_id": "13308",
		"mds_collivery_town_latitude": "-26.322613",
		"mds_collivery_town_longitude": "28.120926"
	},
	{
		"locality_id": "38",
		"locality_name": "New Market Manor",
		"locality_long_name": "New Market Manor, Alberton",
		"suburb_name": "New Market Manor",
		"town_name": "Alberton",
		"postal_code": "1449",
		"province_short_code": "GP",
		"province": "Gauteng",
		"longitude": "28.129458",
		"latitude": "-26.285717",
		"mds_collivery_suburb_name": "New Market Manor",
		"mds_collivery_town_name": "Alberton",
		"mds_collivery_suburb_id": "6514",
		"mds_collivery_town_id": "13308",
		"mds_collivery_town_latitude": "-26.322613",
		"mds_collivery_town_longitude": "28.120926"
	},
	{
		"locality_id": "39",
		"locality_name": "New Market Park",
		"locality_long_name": "New Market Park, Alberton",
		"suburb_name": "New Market Park",
		"town_name": "Alberton",
		"postal_code": "1449",
		"province_short_code": "GP",
		"province": "Gauteng",
		"longitude": "28.137501",
		"latitude": "-26.2875",
		"mds_collivery_suburb_name": "New Market Park",
		"mds_collivery_town_name": "Alberton",
		"mds_collivery_suburb_id": "1461",
		"mds_collivery_town_id": "13308",
		"mds_collivery_town_latitude": "-26.322613",
		"mds_collivery_town_longitude": "28.120926"
	},
	{
		"locality_id": "40",
		"locality_name": "New Redruth",
		"locality_long_name": "New Redruth, Alberton",
		"suburb_name": "New Redruth",
		"town_name": "Alberton",
		"postal_code": "1449",
		"province_short_code": "GP",
		"province": "Gauteng",
		"longitude": "28.114835",
		"latitude": "-26.268004",
		"mds_collivery_suburb_name": "New Redruth",
		"mds_collivery_town_name": "Alberton",
		"mds_collivery_suburb_id": "6512",
		"mds_collivery_town_id": "13308",
		"mds_collivery_town_latitude": "-26.322613",
		"mds_collivery_town_longitude": "28.120926"
	},
	{
		"locality_id": "41",
		"locality_name": "Newmarket AH",
		"locality_long_name": "Newmarket AH, Alberton",
		"suburb_name": "Newmarket AH",
		"town_name": "Alberton",
		"postal_code": "1449",
		"province_short_code": "GP",
		"province": "Gauteng",
		"longitude": "28.129092",
		"latitude": "-26.284103",
		"mds_collivery_suburb_name": "Newmarket AH",
		"mds_collivery_town_name": "Alberton",
		"mds_collivery_suburb_id": "1472",
		"mds_collivery_town_id": "13308",
		"mds_collivery_town_latitude": "-26.322613",
		"mds_collivery_town_longitude": "28.120926"
	},
	{
		"locality_id": "42",
		"locality_name": "Newmarket Park",
		"locality_long_name": "Newmarket Park, Alberton",
		"suburb_name": "Newmarket Park",
		"town_name": "Alberton",
		"postal_code": "1449",
		"province_short_code": "GP",
		"province": "Gauteng",
		"longitude": "28.128361",
		"latitude": "-26.276817",
		"mds_collivery_suburb_name": "Newmarket Park",
		"mds_collivery_town_name": "Alberton",
		"mds_collivery_suburb_id": "1473",
		"mds_collivery_town_id": "13308",
		"mds_collivery_town_latitude": "-26.322613",
		"mds_collivery_town_longitude": "28.120926"
	},
	{
		"locality_id": "43",
		"locality_name": "Raceview",
		"locality_long_name": "Raceview, Alberton",
		"suburb_name": "Raceview",
		"town_name": "Alberton",
		"postal_code": "1449",
		"province_short_code": "GP",
		"province": "Gauteng",
		"longitude": "28.116657",
		"latitude": "-26.276594",
		"mds_collivery_suburb_name": "Raceview",
		"mds_collivery_town_name": "Alberton",
		"mds_collivery_suburb_id": "1723",
		"mds_collivery_town_id": "13308",
		"mds_collivery_town_latitude": "-26.322613",
		"mds_collivery_town_longitude": "28.120926"
	},
	{
		"locality_id": "44",
		"locality_name": "Randhart",
		"locality_long_name": "Randhart, Alberton",
		"suburb_name": "Randhart",
		"town_name": "Alberton",
		"postal_code": "1449",
		"province_short_code": "GP",
		"province": "Gauteng",
		"longitude": "28.113055",
		"latitude": "-26.29176",
		"mds_collivery_suburb_name": "Randhart",
		"mds_collivery_town_name": "Alberton",
		"mds_collivery_suburb_id": "1738",
		"mds_collivery_town_id": "13308",
		"mds_collivery_town_latitude": "-26.322613",
		"mds_collivery_town_longitude": "28.120926"
	},
	{
		"locality_id": "45",
		"locality_name": "Roodekop 139-Ir",
		"locality_long_name": "Roodekop 139-Ir, Alberton",
		"suburb_name": "Roodekop 139-Ir",
		"town_name": "Alberton",
		"postal_code": "1449",
		"province_short_code": "GP",
		"province": "Gauteng",
		"longitude": "28.142989",
		"latitude": "-26.289946",
		"mds_collivery_suburb_name": "Roodekop 139-Ir",
		"mds_collivery_town_name": "Alberton",
		"mds_collivery_suburb_id": "6515",
		"mds_collivery_town_id": "13308",
		"mds_collivery_town_latitude": "-26.322613",
		"mds_collivery_town_longitude": "28.120926"
	},
	{
		"locality_id": "46",
		"locality_name": "Roxton",
		"locality_long_name": "Roxton, Alberton",
		"suburb_name": "Roxton",
		"town_name": "Alberton",
		"postal_code": "1401",
		"province_short_code": "GP",
		"province": "Gauteng",
		"longitude": "28.137503",
		"latitude": "-26.250862",
		"mds_collivery_suburb_name": "Roxton",
		"mds_collivery_town_name": "Alberton",
		"mds_collivery_suburb_id": "1867",
		"mds_collivery_town_id": "13308",
		"mds_collivery_town_latitude": "-26.322613",
		"mds_collivery_town_longitude": "28.120926"
	},
	{
		"locality_id": "47",
		"locality_name": "South Crest",
		"locality_long_name": "South Crest, Alberton",
		"suburb_name": "South Crest",
		"town_name": "Alberton",
		"postal_code": "1449",
		"province_short_code": "GP",
		"province": "Gauteng",
		"longitude": "28.114641",
		"latitude": "-26.253927",
		"mds_collivery_suburb_name": "South Crest",
		"mds_collivery_town_name": "Alberton",
		"mds_collivery_suburb_id": "1998",
		"mds_collivery_town_id": "13308",
		"mds_collivery_town_latitude": "-26.322613",
		"mds_collivery_town_longitude": "28.120926"
	},
	{
		"locality_id": "48",
		"locality_name": "Verwoerd Park",
		"locality_long_name": "Verwoerd Park, Alberton",
		"suburb_name": "Verwoerd Park",
		"town_name": "Alberton",
		"postal_code": "1453",
		"province_short_code": "GP",
		"province": "Gauteng",
		"longitude": "28.137501",
		"latitude": "-26.2792",
		"mds_collivery_suburb_name": "Verwoerd Park",
		"mds_collivery_town_name": "Alberton",
		"mds_collivery_suburb_id": "2249",
		"mds_collivery_town_id": "13308",
		"mds_collivery_town_latitude": "-26.322613",
		"mds_collivery_town_longitude": "28.120926"
	},
	{
		"locality_id": "49",
		"locality_name": "Zwartkoppies 143-Ir",
		"locality_long_name": "Zwartkoppies 143-Ir, Alberton",
		"suburb_name": "Zwartkoppies 143-Ir",
		"town_name": "Alberton",
		"postal_code": "1449",
		"province_short_code": "GP",
		"province": "Gauteng",
		"longitude": "28.110439",
		"latitude": "-26.374307",
		"mds_collivery_suburb_name": "Zwartkoppies 143-Ir",
		"mds_collivery_town_name": "Alberton",
		"mds_collivery_suburb_id": "6531",
		"mds_collivery_town_id": "13308",
		"mds_collivery_town_latitude": "-26.322613",
		"mds_collivery_town_longitude": "28.120926"
	},
	{
		"locality_id": "50",
		"locality_name": "Albinia",
		"locality_long_name": "CBD, Albinia",
		"suburb_name": "CBD",
		"town_name": "Albinia",
		"postal_code": "7530",
		"province_short_code": "KZN",
		"province": "KwaZulu-Natal",
		"longitude": "30.7792",
		"latitude": "-29.7708",
		"mds_collivery_suburb_name": "CBD",
		"mds_collivery_town_name": "Albinia",
		"mds_collivery_suburb_id": "4271",
		"mds_collivery_town_id": "476",
		"mds_collivery_town_latitude": "-29.797994",
		"mds_collivery_town_longitude": "30.767179"
	},
	{
		"locality_id": "51",
		"locality_name": "Alexander Bay",
		"locality_long_name": "CBD, Alexander Bay",
		"suburb_name": "CBD",
		"town_name": "Alexander Bay",
		"postal_code": "8290",
		"province_short_code": "NC",
		"province": "Northern Cape",
		"longitude": "16.4909",
		"latitude": "-28.601601",
		"mds_collivery_suburb_name": "CBD",
		"mds_collivery_town_name": "Alexander Bay",
		"mds_collivery_suburb_id": "4472",
		"mds_collivery_town_id": "3",
		"mds_collivery_town_latitude": "-28.607365",
		"mds_collivery_town_longitude": "16.484762"
	},
	{
		"locality_id": "52",
		"locality_name": "Alexandria EC",
		"locality_long_name": "CBD, Alexandria EC",
		"suburb_name": "CBD",
		"town_name": "Alexandria EC",
		"postal_code": "6185",
		"province_short_code": "EC",
		"province": "Eastern Cape",
		"longitude": "26.4174",
		"latitude": "-33.651299",
		"mds_collivery_suburb_name": "CBD",
		"mds_collivery_town_name": "Alexandria EC",
		"mds_collivery_suburb_id": "4381",
		"mds_collivery_town_id": "8",
		"mds_collivery_town_latitude": "-33.652056",
		"mds_collivery_town_longitude": "26.410536"
	},
	{
		"locality_id": "53",
		"locality_name": "Alice",
		"locality_long_name": "CBD, Alice",
		"suburb_name": "CBD",
		"town_name": "Alice",
		"postal_code": "5700",
		"province_short_code": "EC",
		"province": "Eastern Cape",
		"longitude": "26.820801",
		"latitude": "-32.7841",
		"mds_collivery_suburb_name": "CBD",
		"mds_collivery_town_name": "Alice",
		"mds_collivery_suburb_id": "4086",
		"mds_collivery_town_id": "6",
		"mds_collivery_town_latitude": "-32.790132",
		"mds_collivery_town_longitude": "26.832951"
	},
	{
		"locality_id": "54",
		"locality_name": "Alicedale",
		"locality_long_name": "CBD, Alicedale",
		"suburb_name": "CBD",
		"town_name": "Alicedale",
		"postal_code": "6135",
		"province_short_code": "EC",
		"province": "Eastern Cape",
		"longitude": "26.08153",
		"latitude": "-33.315969",
		"mds_collivery_suburb_name": "CBD",
		"mds_collivery_town_name": "Alicedale",
		"mds_collivery_suburb_id": "5935",
		"mds_collivery_town_id": "12438",
		"mds_collivery_town_latitude": "-33.316495",
		"mds_collivery_town_longitude": "26.073896"
	},
	{
		"locality_id": "55",
		"locality_name": "Aliwal North",
		"locality_long_name": "CBD, Aliwal North",
		"suburb_name": "CBD",
		"town_name": "Aliwal North",
		"postal_code": "9750",
		"province_short_code": "EC",
		"province": "Eastern Cape",
		"longitude": "26.711399",
		"latitude": "-30.6917",
		"mds_collivery_suburb_name": "CBD",
		"mds_collivery_town_name": "Aliwal North",
		"mds_collivery_suburb_id": "3977",
		"mds_collivery_town_id": "20",
		"mds_collivery_town_latitude": "-30.698394",
		"mds_collivery_town_longitude": "26.720177"
	},
	{
		"locality_id": "56",
		"locality_name": "Alkmaar",
		"locality_long_name": "CBD, Alkmaar",
		"suburb_name": "CBD",
		"town_name": "Alkmaar",
		"postal_code": "0000",
		"province_short_code": "MP",
		"province": "Mpumalanga",
		"longitude": "30.8263",
		"latitude": "-25.444099",
		"mds_collivery_suburb_name": "CBD",
		"mds_collivery_town_name": "Alkmaar",
		"mds_collivery_suburb_id": "4869",
		"mds_collivery_town_id": "848",
		"mds_collivery_town_latitude": "-25.450000",
		"mds_collivery_town_longitude": "30.833333"
	},
	{
		"locality_id": "57",
		"locality_name": "Allanridge",
		"locality_long_name": "CBD, Allanridge",
		"suburb_name": "CBD",
		"town_name": "Allanridge",
		"postal_code": "9490",
		"province_short_code": "FS",
		"province": "Free State",
		"longitude": "26.653099",
		"latitude": "-27.7442",
		"mds_collivery_suburb_name": "CBD",
		"mds_collivery_town_name": "Allanridge",
		"mds_collivery_suburb_id": "4272",
		"mds_collivery_town_id": "10",
		"mds_collivery_town_latitude": "-27.756182",
		"mds_collivery_town_longitude": "26.637648"
	},
	{
		"locality_id": "58",
		"locality_name": "Alldays",
		"locality_long_name": "CBD, Alldays",
		"suburb_name": "CBD",
		"town_name": "Alldays",
		"postal_code": "0909",
		"province_short_code": "LP",
		"province": "Limpopo",
		"longitude": "29.1089",
		"latitude": "-22.677099",
		"mds_collivery_suburb_name": "CBD",
		"mds_collivery_town_name": "Alldays",
		"mds_collivery_suburb_id": "4273",
		"mds_collivery_town_id": "7",
		"mds_collivery_town_latitude": "-22.682460",
		"mds_collivery_town_longitude": "29.102715"
	},
	{
		"locality_id": "59",
		"locality_name": "Allemansdrift-C",
		"locality_long_name": "CBD, Allemansdrift-C",
		"suburb_name": "CBD",
		"town_name": "Allemansdrift-C",
		"postal_code": "0000",
		"province_short_code": "MP",
		"province": "Mpumalanga",
		"longitude": "28.908967",
		"latitude": "-25.114749",
		"mds_collivery_suburb_name": "CBD",
		"mds_collivery_town_name": "Allemansdrift-C",
		"mds_collivery_suburb_id": "6019",
		"mds_collivery_town_id": "12588",
		"mds_collivery_town_latitude": "-25.114658",
		"mds_collivery_town_longitude": "28.909191"
	},
	{
		"locality_id": "60",
		"locality_name": "Alma",
		"locality_long_name": "CBD, Alma",
		"suburb_name": "CBD",
		"town_name": "Alma",
		"postal_code": "0512",
		"province_short_code": "LP",
		"province": "Limpopo",
		"longitude": "28.0767",
		"latitude": "-24.4842",
		"mds_collivery_suburb_name": "CBD",
		"mds_collivery_town_name": "Alma",
		"mds_collivery_suburb_id": "4866",
		"mds_collivery_town_id": "845",
		"mds_collivery_town_latitude": "-24.484063",
		"mds_collivery_town_longitude": "28.074956"
	},
	{
		"locality_id": "61",
		"locality_name": "Amabele",
		"locality_long_name": "CBD, Amabele",
		"suburb_name": "CBD",
		"town_name": "Amabele",
		"postal_code": "4931",
		"province_short_code": "EC",
		"province": "Eastern Cape",
		"longitude": "27.536301",
		"latitude": "-32.662899",
		"mds_collivery_suburb_name": "CBD",
		"mds_collivery_town_name": "Amabele",
		"mds_collivery_suburb_id": "4274",
		"mds_collivery_town_id": "477",
		"mds_collivery_town_latitude": "-32.662899",
		"mds_collivery_town_longitude": "27.536301"
	},
	{
		"locality_id": "62",
		"locality_name": "Amalia",
		"locality_long_name": "CBD, Amalia",
		"suburb_name": "CBD",
		"town_name": "Amalia",
		"postal_code": "2786",
		"province_short_code": "NW",
		"province": "North West",
		"longitude": "25.0439",
		"latitude": "-27.25",
		"mds_collivery_suburb_name": "CBD",
		"mds_collivery_town_name": "Amalia",
		"mds_collivery_suburb_id": "5003",
		"mds_collivery_town_id": "940",
		"mds_collivery_town_latitude": "-27.243008",
		"mds_collivery_town_longitude": "25.040668"
	},
	{
		"locality_id": "63",
		"locality_name": "CBD",
		"locality_long_name": "CBD, Amandabult",
		"suburb_name": "CBD",
		"town_name": "Amandabult",
		"postal_code": "0000",
		"province_short_code": "LP",
		"province": "Limpopo",
		"longitude": "27.2882",
		"latitude": "-24.823601",
		"mds_collivery_suburb_name": "CBD",
		"mds_collivery_town_name": "Amandabult",
		"mds_collivery_suburb_id": "4275",
		"mds_collivery_town_id": "478",
		"mds_collivery_town_latitude": "-24.816667",
		"mds_collivery_town_longitude": "27.283333"
	},
	{
		"locality_id": "64",
		"locality_name": "Chromite",
		"locality_long_name": "Chromite, Amandabult",
		"suburb_name": "Chromite",
		"town_name": "Amandabult",
		"postal_code": "0000",
		"province_short_code": "LP",
		"province": "Limpopo",
		"longitude": "27.28387",
		"latitude": "-24.819729",
		"mds_collivery_suburb_name": "Chromite",
		"mds_collivery_town_name": "Amandabult",
		"mds_collivery_suburb_id": "6084",
		"mds_collivery_town_id": "478",
		"mds_collivery_town_latitude": "-24.816667",
		"mds_collivery_town_longitude": "27.283333"
	},
	{
		"locality_id": "65",
		"locality_name": "Amandelbult",
		"locality_long_name": "CBD, Amandelbult",
		"suburb_name": "CBD",
		"town_name": "Amandelbult",
		"postal_code": "0362",
		"province_short_code": "LP",
		"province": "Limpopo",
		"longitude": "27.28387",
		"latitude": "-24.819729",
		"mds_collivery_suburb_name": "CBD",
		"mds_collivery_town_name": "Amandelbult",
		"mds_collivery_suburb_id": "6083",
		"mds_collivery_town_id": "12739",
		"mds_collivery_town_latitude": "-24.816667",
		"mds_collivery_town_longitude": "27.283333"
	},
	{
		"locality_id": "66",
		"locality_name": "Althone Park",
		"locality_long_name": "Althone Park, Amanzimtoti",
		"suburb_name": "Althone Park",
		"town_name": "Amanzimtoti",
		"postal_code": "4126",
		"province_short_code": "KZN",
		"province": "KwaZulu-Natal",
		"longitude": "30.9217",
		"latitude": "-30.0138",
		"mds_collivery_suburb_name": "Althone Park",
		"mds_collivery_town_name": "Amanzimtoti",
		"mds_collivery_suburb_id": "5339",
		"mds_collivery_town_id": "11",
		"mds_collivery_town_latitude": "-30.035043",
		"mds_collivery_town_longitude": "30.890084"
	},
	{
		"locality_id": "67",
		"locality_name": "CBD",
		"locality_long_name": "CBD, Amanzimtoti",
		"suburb_name": "CBD",
		"town_name": "Amanzimtoti",
		"postal_code": "4126",
		"province_short_code": "KZN",
		"province": "KwaZulu-Natal",
		"longitude": "30.886999",
		"latitude": "-30.044001",
		"mds_collivery_suburb_name": "CBD",
		"mds_collivery_town_name": "Amanzimtoti",
		"mds_collivery_suburb_id": "4108",
		"mds_collivery_town_id": "11",
		"mds_collivery_town_latitude": "-30.035043",
		"mds_collivery_town_longitude": "30.890084"
	},
	{
		"locality_id": "68",
		"locality_name": "Amatikulu",
		"locality_long_name": "CBD, Amatikulu",
		"suburb_name": "CBD",
		"town_name": "Amatikulu",
		"postal_code": "3801",
		"province_short_code": "KZN",
		"province": "KwaZulu-Natal",
		"longitude": "31.538601",
		"latitude": "-29.0541",
		"mds_collivery_suburb_name": "CBD",
		"mds_collivery_town_name": "Amatikulu",
		"mds_collivery_suburb_id": "4276",
		"mds_collivery_town_id": "479",
		"mds_collivery_town_latitude": "-29.047619",
		"mds_collivery_town_longitude": "31.532718"
	},
	{
		"locality_id": "69",
		"locality_name": "Amersfoort",
		"locality_long_name": "CBD, Amersfoort",
		"suburb_name": "CBD",
		"town_name": "Amersfoort",
		"postal_code": "2490",
		"province_short_code": "MP",
		"province": "Mpumalanga",
		"longitude": "29.864401",
		"latitude": "-27.0138",
		"mds_collivery_suburb_name": "CBD",
		"mds_collivery_town_name": "Amersfoort",
		"mds_collivery_suburb_id": "4277",
		"mds_collivery_town_id": "12",
		"mds_collivery_town_latitude": "-27.010281",
		"mds_collivery_town_longitude": "29.841017"
	},
	{
		"locality_id": "70",
		"locality_name": "Amsterdam",
		"locality_long_name": "CBD, Amsterdam",
		"suburb_name": "CBD",
		"town_name": "Amsterdam",
		"postal_code": "2375",
		"province_short_code": "MP",
		"province": "Mpumalanga",
		"longitude": "30.6672",
		"latitude": "-26.614799",
		"mds_collivery_suburb_name": "CBD",
		"mds_collivery_town_name": "Amsterdam",
		"mds_collivery_suburb_id": "4376",
		"mds_collivery_town_id": "13",
		"mds_collivery_town_latitude": "-26.632125",
		"mds_collivery_town_longitude": "30.668880"
	},
	{
		"locality_id": "71",
		"locality_name": "Andriesvale",
		"locality_long_name": "CBD, Andriesvale",
		"suburb_name": "CBD",
		"town_name": "Andriesvale",
		"postal_code": "0000",
		"province_short_code": "NC",
		"province": "Northern Cape",
		"longitude": "20.659655",
		"latitude": "-26.937298",
		"mds_collivery_suburb_name": "CBD",
		"mds_collivery_town_name": "Andriesvale",
		"mds_collivery_suburb_id": "5753",
		"mds_collivery_town_id": "11981",
		"mds_collivery_town_latitude": "-26.937298",
		"mds_collivery_town_longitude": "20.659655"
	},
	{
		"locality_id": "72",
		"locality_name": "Anerley",
		"locality_long_name": "CBD, Anerley",
		"suburb_name": "CBD",
		"town_name": "Anerley",
		"postal_code": "4230",
		"province_short_code": "KZN",
		"province": "KwaZulu-Natal",
		"longitude": "30.5042",
		"latitude": "-30.6768",
		"mds_collivery_suburb_name": "CBD",
		"mds_collivery_town_name": "Anerley",
		"mds_collivery_suburb_id": "4278",
		"mds_collivery_town_id": "14",
		"mds_collivery_town_latitude": "-30.670264",
		"mds_collivery_town_longitude": "30.503440"
	},
	{
		"locality_id": "73",
		"locality_name": "Apel",
		"locality_long_name": "CBD, Apel",
		"suburb_name": "CBD",
		"town_name": "Apel",
		"postal_code": "0739",
		"province_short_code": "LP",
		"province": "Limpopo",
		"longitude": "29.752701",
		"latitude": "-24.4209",
		"mds_collivery_suburb_name": "CBD",
		"mds_collivery_town_name": "Apel",
		"mds_collivery_suburb_id": "4963",
		"mds_collivery_town_id": "901",
		"mds_collivery_town_latitude": "-24.420851",
		"mds_collivery_town_longitude": "29.752738"
	},
	{
		"locality_id": "74",
		"locality_name": "Arlington",
		"locality_long_name": "CBD, Arlington",
		"suburb_name": "CBD",
		"town_name": "Arlington",
		"postal_code": "9602",
		"province_short_code": "FS",
		"province": "Free State",
		"longitude": "27.8486",
		"latitude": "-28.0319",
		"mds_collivery_suburb_name": "CBD",
		"mds_collivery_town_name": "Arlington",
		"mds_collivery_suburb_id": "4279",
		"mds_collivery_town_id": "15",
		"mds_collivery_town_latitude": "-28.024692",
		"mds_collivery_town_longitude": "27.851656"
	},
	{
		"locality_id": "75",
		"locality_name": "Arniston",
		"locality_long_name": "CBD, Arniston",
		"suburb_name": "CBD",
		"town_name": "Arniston",
		"postal_code": "7280",
		"province_short_code": "WC",
		"province": "Western Cape",
		"longitude": "20.2285",
		"latitude": "-34.646999",
		"mds_collivery_suburb_name": "CBD",
		"mds_collivery_town_name": "Arniston",
		"mds_collivery_suburb_id": "4777",
		"mds_collivery_town_id": "16",
		"mds_collivery_town_latitude": "-34.681954",
		"mds_collivery_town_longitude": "20.226629"
	},
	{
		"locality_id": "76",
		"locality_name": "Arnot",
		"locality_long_name": "CBD, Arnot",
		"suburb_name": "CBD",
		"town_name": "Arnot",
		"postal_code": "1097",
		"province_short_code": "MP",
		"province": "Mpumalanga",
		"longitude": "29.799999",
		"latitude": "-25.950001",
		"mds_collivery_suburb_name": "CBD",
		"mds_collivery_town_name": "Arnot",
		"mds_collivery_suburb_id": "4280",
		"mds_collivery_town_id": "480",
		"mds_collivery_town_latitude": "-25.950000",
		"mds_collivery_town_longitude": "29.800000"
	},
	{
		"locality_id": "77",
		"locality_name": "Arthur Taylor Mine",
		"locality_long_name": "CBD, Arthur Taylor Mine",
		"suburb_name": "CBD",
		"town_name": "Arthur Taylor Mine",
		"postal_code": "0000",
		"province_short_code": "MP",
		"province": "Mpumalanga",
		"longitude": "29.215401",
		"latitude": "-26.100401",
		"mds_collivery_suburb_name": "CBD",
		"mds_collivery_town_name": "Arthur Taylor Mine",
		"mds_collivery_suburb_id": "6122",
		"mds_collivery_town_id": "482",
		"mds_collivery_town_latitude": "-26.100401",
		"mds_collivery_town_longitude": "29.215401"
	},
	{
		"locality_id": "78",
		"locality_name": "Ashton Outlying",
		"locality_long_name": "Ashton Outlying, Ashton",
		"suburb_name": "Ashton Outlying",
		"town_name": "Ashton",
		"postal_code": "6715",
		"province_short_code": "WC",
		"province": "Western Cape",
		"longitude": "20.0942",
		"latitude": "-33.8414",
		"mds_collivery_suburb_name": "Ashton Outlying",
		"mds_collivery_town_name": "Ashton",
		"mds_collivery_suburb_id": "4678",
		"mds_collivery_town_id": "17",
		"mds_collivery_town_latitude": "-33.829878",
		"mds_collivery_town_longitude": "20.050922"
	},
	{
		"locality_id": "79",
		"locality_name": "CBD",
		"locality_long_name": "CBD, Ashton",
		"suburb_name": "CBD",
		"town_name": "Ashton",
		"postal_code": "6715",
		"province_short_code": "WC",
		"province": "Western Cape",
		"longitude": "20.065901",
		"latitude": "-33.8386",
		"mds_collivery_suburb_name": "CBD",
		"mds_collivery_town_name": "Ashton",
		"mds_collivery_suburb_id": "4675",
		"mds_collivery_town_id": "17",
		"mds_collivery_town_latitude": "-33.829878",
		"mds_collivery_town_longitude": "20.050922"
	},
	{
		"locality_id": "80",
		"locality_name": "New Look",
		"locality_long_name": "New Look, Ashton",
		"suburb_name": "New Look",
		"town_name": "Ashton",
		"postal_code": "6715",
		"province_short_code": "WC",
		"province": "Western Cape",
		"longitude": "20.081301",
		"latitude": "-33.8396",
		"mds_collivery_suburb_name": "New Look",
		"mds_collivery_town_name": "Ashton",
		"mds_collivery_suburb_id": "4677",
		"mds_collivery_town_id": "17",
		"mds_collivery_town_latitude": "-33.829878",
		"mds_collivery_town_longitude": "20.050922"
	},
	{
		"locality_id": "81",
		"locality_name": "Sandvliet",
		"locality_long_name": "Sandvliet, Ashton",
		"suburb_name": "Sandvliet",
		"town_name": "Ashton",
		"postal_code": "6715",
		"province_short_code": "WC",
		"province": "Western Cape",
		"longitude": "20.040899",
		"latitude": "-33.8419",
		"mds_collivery_suburb_name": "Sandvliet",
		"mds_collivery_town_name": "Ashton",
		"mds_collivery_suburb_id": "4679",
		"mds_collivery_town_id": "17",
		"mds_collivery_town_latitude": "-33.829878",
		"mds_collivery_town_longitude": "20.050922"
	},
	{
		"locality_id": "82",
		"locality_name": "Zolani",
		"locality_long_name": "Zolani, Ashton",
		"suburb_name": "Zolani",
		"town_name": "Ashton",
		"postal_code": "6715",
		"province_short_code": "WC",
		"province": "Western Cape",
		"longitude": "20.091101",
		"latitude": "-33.8405",
		"mds_collivery_suburb_name": "Zolani",
		"mds_collivery_town_name": "Ashton",
		"mds_collivery_suburb_id": "4676",
		"mds_collivery_town_id": "17",
		"mds_collivery_town_latitude": "-33.829878",
		"mds_collivery_town_longitude": "20.050922"
	},
	{
		"locality_id": "83",
		"locality_name": "Askham",
		"locality_long_name": "CBD, Askham",
		"suburb_name": "CBD",
		"town_name": "Askham",
		"postal_code": "8814",
		"province_short_code": "NC",
		"province": "Northern Cape",
		"longitude": "20.7917",
		"latitude": "-26.9835",
		"mds_collivery_suburb_name": "CBD",
		"mds_collivery_town_name": "Askham",
		"mds_collivery_suburb_id": "4778",
		"mds_collivery_town_id": "18",
		"mds_collivery_town_latitude": "-26.983333",
		"mds_collivery_town_longitude": "20.783333"
	},
	{
		"locality_id": "84",
		"locality_name": "Aston Bay",
		"locality_long_name": "CBD, Aston Bay",
		"suburb_name": "CBD",
		"town_name": "Aston Bay",
		"postal_code": "6332",
		"province_short_code": "EC",
		"province": "Eastern Cape",
		"longitude": "24.9087",
		"latitude": "-34.081",
		"mds_collivery_suburb_name": "CBD",
		"mds_collivery_town_name": "Aston Bay",
		"mds_collivery_suburb_id": "5725",
		"mds_collivery_town_id": "11934",
		"mds_collivery_town_latitude": "-34.081012",
		"mds_collivery_town_longitude": "24.908671"
	},
	{
		"locality_id": "85",
		"locality_name": "Atamelang",
		"locality_long_name": "CBD, Atamelang",
		"suburb_name": "CBD",
		"town_name": "Atamelang",
		"postal_code": "2732",
		"province_short_code": "NW",
		"province": "North West",
		"longitude": "25.3697",
		"latitude": "-26.5019",
		"mds_collivery_suburb_name": "CBD",
		"mds_collivery_town_name": "Atamelang",
		"mds_collivery_suburb_id": "5502",
		"mds_collivery_town_id": "11017",
		"mds_collivery_town_latitude": "-26.501886",
		"mds_collivery_town_longitude": "25.369684"
	},
	{
		"locality_id": "86",
		"locality_name": "Athole",
		"locality_long_name": "CBD, Athole",
		"suburb_name": "CBD",
		"town_name": "Athole",
		"postal_code": "0000",
		"province_short_code": "GP",
		"province": "Gauteng",
		"longitude": "31.3456",
		"latitude": "-24.7084",
		"mds_collivery_suburb_name": "CBD",
		"mds_collivery_town_name": "Athole",
		"mds_collivery_suburb_id": "5593",
		"mds_collivery_town_id": "11668",
		"mds_collivery_town_latitude": "-24.708877",
		"mds_collivery_town_longitude": "31.345854"
	},
	{
		"locality_id": "87",
		"locality_name": "Atlantic Beach Estate",
		"locality_long_name": "CBD, Atlantic Beach Estate",
		"suburb_name": "CBD",
		"town_name": "Atlantic Beach Estate",
		"postal_code": "7441",
		"province_short_code": "WC",
		"province": "Western Cape",
		"longitude": "18.4484",
		"latitude": "-33.7472",
		"mds_collivery_suburb_name": "CBD",
		"mds_collivery_town_name": "Atlantic Beach Estate",
		"mds_collivery_suburb_id": "4624",
		"mds_collivery_town_id": "701",
		"mds_collivery_town_latitude": "-33.747190",
		"mds_collivery_town_longitude": "18.448376"
	},
	{
		"locality_id": "88",
		"locality_name": "Atlantis",
		"locality_long_name": "Atlantis, Atlantis",
		"suburb_name": "Atlantis",
		"town_name": "Atlantis",
		"postal_code": "7300",
		"province_short_code": "WC",
		"province": "Western Cape",
		"longitude": "18.486956",
		"latitude": "-33.506266",
		"mds_collivery_suburb_name": "Atlantis",
		"mds_collivery_town_name": "Atlantis",
		"mds_collivery_suburb_id": "5209",
		"mds_collivery_town_id": "1030",
		"mds_collivery_town_latitude": "-33.506266",
		"mds_collivery_town_longitude": "18.486956"
	},
	{
		"locality_id": "89",
		"locality_name": "Atlantis Industrial",
		"locality_long_name": "Atlantis Industrial, Atlantis",
		"suburb_name": "Atlantis Industrial",
		"town_name": "Atlantis",
		"postal_code": "7349",
		"province_short_code": "WC",
		"province": "Western Cape",
		"longitude": "18.48102",
		"latitude": "-33.58827",
		"mds_collivery_suburb_name": "Atlantis Industrial",
		"mds_collivery_town_name": "Atlantis",
		"mds_collivery_suburb_id": "2476",
		"mds_collivery_town_id": "1030",
		"mds_collivery_town_latitude": "-33.506266",
		"mds_collivery_town_longitude": "18.486956"
	},
	{
		"locality_id": "90",
		"locality_name": "Avondale",
		"locality_long_name": "Avondale, Atlantis",
		"suburb_name": "Avondale",
		"town_name": "Atlantis",
		"postal_code": "7349",
		"province_short_code": "WC",
		"province": "Western Cape",
		"longitude": "18.483988",
		"latitude": "-33.568898",
		"mds_collivery_suburb_name": "Avondale",
		"mds_collivery_town_name": "Atlantis",
		"mds_collivery_suburb_id": "2480",
		"mds_collivery_town_id": "1030",
		"mds_collivery_town_latitude": "-33.506266",
		"mds_collivery_town_longitude": "18.486956"
	},
	{
		"locality_id": "91",
		"locality_name": "Beacon Hill",
		"locality_long_name": "Beacon Hill, Atlantis",
		"suburb_name": "Beacon Hill",
		"town_name": "Atlantis",
		"postal_code": "7349",
		"province_short_code": "WC",
		"province": "Western Cape",
		"longitude": "18.506247",
		"latitude": "-33.561414",
		"mds_collivery_suburb_name": "Beacon Hill",
		"mds_collivery_town_name": "Atlantis",
		"mds_collivery_suburb_id": "2491",
		"mds_collivery_town_id": "1030",
		"mds_collivery_town_latitude": "-33.506266",
		"mds_collivery_town_longitude": "18.486956"
	},
	{
		"locality_id": "92",
		"locality_name": "Hospital",
		"locality_long_name": "Hospital, Atlantis",
		"suburb_name": "Hospital",
		"town_name": "Atlantis",
		"postal_code": "7349",
		"province_short_code": "WC",
		"province": "Western Cape",
		"longitude": "18.495303",
		"latitude": "-33.564622",
		"mds_collivery_suburb_name": "Hospital",
		"mds_collivery_town_name": "Atlantis",
		"mds_collivery_suburb_id": "6664",
		"mds_collivery_town_id": "1030",
		"mds_collivery_town_latitude": "-33.506266",
		"mds_collivery_town_longitude": "18.486956"
	},
	{
		"locality_id": "93",
		"locality_name": "Papekuil Outspan",
		"locality_long_name": "Papekuil Outspan, Atlantis",
		"suburb_name": "Papekuil Outspan",
		"town_name": "Atlantis",
		"postal_code": "7349",
		"province_short_code": "WC",
		"province": "Western Cape",
		"longitude": "18.513667",
		"latitude": "-33.569728",
		"mds_collivery_suburb_name": "Papekuil Outspan",
		"mds_collivery_town_name": "Atlantis",
		"mds_collivery_suburb_id": "6665",
		"mds_collivery_town_id": "1030",
		"mds_collivery_town_latitude": "-33.506266",
		"mds_collivery_town_longitude": "18.486956"
	},
	{
		"locality_id": "94",
		"locality_name": "Protea Park",
		"locality_long_name": "Protea Park, Atlantis",
		"suburb_name": "Protea Park",
		"town_name": "Atlantis",
		"postal_code": "7349",
		"province_short_code": "WC",
		"province": "Western Cape",
		"longitude": "18.497343",
		"latitude": "-33.576298",
		"mds_collivery_suburb_name": "Protea Park",
		"mds_collivery_town_name": "Atlantis",
		"mds_collivery_suburb_id": "3296",
		"mds_collivery_town_id": "1030",
		"mds_collivery_town_latitude": "-33.506266",
		"mds_collivery_town_longitude": "18.486956"
	},
	{
		"locality_id": "95",
		"locality_name": "Robinvale",
		"locality_long_name": "Robinvale, Atlantis",
		"suburb_name": "Robinvale",
		"town_name": "Atlantis",
		"postal_code": "7349",
		"province_short_code": "WC",
		"province": "Western Cape",
		"longitude": "18.506247",
		"latitude": "-33.569521",
		"mds_collivery_suburb_name": "Robinvale",
		"mds_collivery_town_name": "Atlantis",
		"mds_collivery_suburb_id": "3008",
		"mds_collivery_town_id": "1030",
		"mds_collivery_town_latitude": "-33.506266",
		"mds_collivery_town_longitude": "18.486956"
	},
	{
		"locality_id": "96",
		"locality_name": "Saxonsea",
		"locality_long_name": "Saxonsea, Atlantis",
		"suburb_name": "Saxonsea",
		"town_name": "Atlantis",
		"postal_code": "7349",
		"province_short_code": "WC",
		"province": "Western Cape",
		"longitude": "18.489923",
		"latitude": "-33.551768",
		"mds_collivery_suburb_name": "Saxonsea",
		"mds_collivery_town_name": "Atlantis",
		"mds_collivery_suburb_id": "3044",
		"mds_collivery_town_id": "1030",
		"mds_collivery_town_latitude": "-33.506266",
		"mds_collivery_town_longitude": "18.486956"
	},
	{
		"locality_id": "97",
		"locality_name": "Sherwood",
		"locality_long_name": "Sherwood, Atlantis",
		"suburb_name": "Sherwood",
		"town_name": "Atlantis",
		"postal_code": "7349",
		"province_short_code": "WC",
		"province": "Western Cape",
		"longitude": "18.500311",
		"latitude": "-33.551519",
		"mds_collivery_suburb_name": "Sherwood",
		"mds_collivery_town_name": "Atlantis",
		"mds_collivery_suburb_id": "3057",
		"mds_collivery_town_id": "1030",
		"mds_collivery_town_latitude": "-33.506266",
		"mds_collivery_town_longitude": "18.486956"
	},
	{
		"locality_id": "98",
		"locality_name": "Wesfleur",
		"locality_long_name": "Wesfleur, Atlantis",
		"suburb_name": "Wesfleur",
		"town_name": "Atlantis",
		"postal_code": "7349",
		"province_short_code": "WC",
		"province": "Western Cape",
		"longitude": "18.469149",
		"latitude": "-33.557669",
		"mds_collivery_suburb_name": "Wesfleur",
		"mds_collivery_town_name": "Atlantis",
		"mds_collivery_suburb_id": "3214",
		"mds_collivery_town_id": "1030",
		"mds_collivery_town_latitude": "-33.506266",
		"mds_collivery_town_longitude": "18.486956"
	},
	{
		"locality_id": "99",
		"locality_name": "Atok",
		"locality_long_name": "CBD, Atok",
		"suburb_name": "CBD",
		"town_name": "Atok",
		"postal_code": "0749",
		"province_short_code": "LP",
		"province": "Limpopo",
		"longitude": "29.8902",
		"latitude": "-24.301201",
		"mds_collivery_suburb_name": "CBD",
		"mds_collivery_town_name": "Atok",
		"mds_collivery_suburb_id": "4964",
		"mds_collivery_town_id": "902",
		"mds_collivery_town_latitude": "-24.301176",
		"mds_collivery_town_longitude": "29.890198"
	},
	{
		"locality_id": "100",
		"locality_name": "Atteridgeville - PTA",
		"locality_long_name": "CBD, Atteridgeville - PTA",
		"suburb_name": "CBD",
		"town_name": "Atteridgeville - PTA",
		"postal_code": "0006",
		"province_short_code": "GP",
		"province": "Gauteng",
		"longitude": "28.08294",
		"latitude": "-25.771355",
		"mds_collivery_suburb_name": "CBD",
		"mds_collivery_town_name": "Atteridgeville - PTA",
		"mds_collivery_suburb_id": "6270",
		"mds_collivery_town_id": "13148",
		"mds_collivery_town_latitude": "-25.771355",
		"mds_collivery_town_longitude": "28.082940"
	},
	{
		"locality_id": "101",
		"locality_name": "Augrabies",
		"locality_long_name": "CBD, Augrabies",
		"suburb_name": "CBD",
		"town_name": "Augrabies",
		"postal_code": "8874",
		"province_short_code": "NC",
		"province": "Northern Cape",
		"longitude": "20.4247",
		"latitude": "-28.666401",
		"mds_collivery_suburb_name": "CBD",
		"mds_collivery_town_name": "Augrabies",
		"mds_collivery_suburb_id": "5073",
		"mds_collivery_town_id": "980",
		"mds_collivery_town_latitude": "-28.672732",
		"mds_collivery_town_longitude": "20.428443"
	},
	{
		"locality_id": "102",
		"locality_name": "Aurora",
		"locality_long_name": "Aurora, Aurora",
		"suburb_name": "Aurora",
		"town_name": "Aurora",
		"postal_code": "7325",
		"province_short_code": "WC",
		"province": "Western Cape",
		"longitude": "18.485472",
		"latitude": "-32.709656",
		"mds_collivery_suburb_name": "Aurora",
		"mds_collivery_town_name": "Aurora",
		"mds_collivery_suburb_id": "5052",
		"mds_collivery_town_id": "19",
		"mds_collivery_town_latitude": "-32.709655",
		"mds_collivery_town_longitude": "18.485472"
	},
	{
		"locality_id": "103",
		"locality_name": "Austrey",
		"locality_long_name": "CBD, Austrey",
		"suburb_name": "CBD",
		"town_name": "Austrey",
		"postal_code": "8650",
		"province_short_code": "NW",
		"province": "North West",
		"longitude": "24.1829",
		"latitude": "-26.4676",
		"mds_collivery_suburb_name": "CBD",
		"mds_collivery_town_name": "Austrey",
		"mds_collivery_suburb_id": "5644",
		"mds_collivery_town_id": "11718",
		"mds_collivery_town_latitude": "-26.466819",
		"mds_collivery_town_longitude": "24.182578"
	},
	{
		"locality_id": "104",
		"locality_name": "Avondster",
		"locality_long_name": "CBD, Avondster",
		"suburb_name": "CBD",
		"town_name": "Avondster",
		"postal_code": "0000",
		"province_short_code": "NW",
		"province": "North West",
		"longitude": "25.2",
		"latitude": "-27.4333",
		"mds_collivery_suburb_name": "CBD",
		"mds_collivery_town_name": "Avondster",
		"mds_collivery_suburb_id": "5678",
		"mds_collivery_town_id": "11753",
		"mds_collivery_town_latitude": "-27.433333",
		"mds_collivery_town_longitude": "25.200000"
	},
	{
		"locality_id": "105",
		"locality_name": "Avontuur",
		"locality_long_name": "CBD, Avontuur",
		"suburb_name": "CBD",
		"town_name": "Avontuur",
		"postal_code": "6490",
		"province_short_code": "WC",
		"province": "Western Cape",
		"longitude": "23.165701",
		"latitude": "-33.724602",
		"mds_collivery_suburb_name": "CBD",
		"mds_collivery_town_name": "Avontuur",
		"mds_collivery_suburb_id": "4283",
		"mds_collivery_town_id": "483",
		"mds_collivery_town_latitude": "-33.716667",
		"mds_collivery_town_longitude": "23.166667"
	},
	{
		"locality_id": "106",
		"locality_name": "Baardskeerdersbos",
		"locality_long_name": "CBD, Baardskeerdersbos",
		"suburb_name": "CBD",
		"town_name": "Baardskeerdersbos",
		"postal_code": "7271",
		"province_short_code": "WC",
		"province": "Western Cape",
		"longitude": "19.571044",
		"latitude": "-34.587629",
		"mds_collivery_suburb_name": "CBD",
		"mds_collivery_town_name": "Baardskeerdersbos",
		"mds_collivery_suburb_id": "6796",
		"mds_collivery_town_id": "13372",
		"mds_collivery_town_latitude": "-34.587629",
		"mds_collivery_town_longitude": "19.571044"
	},
	{
		"locality_id": "107",
		"locality_name": "Babanango",
		"locality_long_name": "CBD, Babanango",
		"suburb_name": "CBD",
		"town_name": "Babanango",
		"postal_code": "0000",
		"province_short_code": "KZN",
		"province": "KwaZulu-Natal",
		"longitude": "31.077",
		"latitude": "-28.375999",
		"mds_collivery_suburb_name": "CBD",
		"mds_collivery_town_name": "Babanango",
		"mds_collivery_suburb_id": "6037",
		"mds_collivery_town_id": "21",
		"mds_collivery_town_latitude": "-28.375999",
		"mds_collivery_town_longitude": "31.077000"
	},
	{
		"locality_id": "108",
		"locality_name": "Babelegie",
		"locality_long_name": "CBD, Babelegie",
		"suburb_name": "CBD",
		"town_name": "Babelegie",
		"postal_code": "0407",
		"province_short_code": "GP",
		"province": "Gauteng",
		"longitude": "28.280199",
		"latitude": "-25.3978",
		"mds_collivery_suburb_name": "CBD",
		"mds_collivery_town_name": "Babelegie",
		"mds_collivery_suburb_id": "4297",
		"mds_collivery_town_id": "492",
		"mds_collivery_town_latitude": "-25.355381",
		"mds_collivery_town_longitude": "28.278973"
	},
	{
		"locality_id": "109",
		"locality_name": "Badplaas",
		"locality_long_name": "CBD, Badplaas",
		"suburb_name": "CBD",
		"town_name": "Badplaas",
		"postal_code": "1190",
		"province_short_code": "MP",
		"province": "Mpumalanga",
		"longitude": "30.5676",
		"latitude": "-25.9534",
		"mds_collivery_suburb_name": "CBD",
		"mds_collivery_town_name": "Badplaas",
		"mds_collivery_suburb_id": "4889",
		"mds_collivery_town_id": "22",
		"mds_collivery_town_latitude": "-25.957364",
		"mds_collivery_town_longitude": "30.539423"
	},
	{
		"locality_id": "110",
		"locality_name": "Bainsvlei",
		"locality_long_name": "CBD, Bainsvlei",
		"suburb_name": "CBD",
		"town_name": "Bainsvlei",
		"postal_code": "9338",
		"province_short_code": "FS",
		"province": "Free State",
		"longitude": "26.141899",
		"latitude": "-29.2132",
		"mds_collivery_suburb_name": "CBD",
		"mds_collivery_town_name": "Bainsvlei",
		"mds_collivery_suburb_id": "5840",
		"mds_collivery_town_id": "668",
		"mds_collivery_town_latitude": "-29.213177",
		"mds_collivery_town_longitude": "26.141852"
	},
	{
		"locality_id": "111",
		"locality_name": "Bakerville",
		"locality_long_name": "CBD, Bakerville",
		"suburb_name": "CBD",
		"town_name": "Bakerville",
		"postal_code": "0000",
		"province_short_code": "NW",
		"province": "North West",
		"longitude": "26.083208",
		"latitude": "-25.983971",
		"mds_collivery_suburb_name": "CBD",
		"mds_collivery_town_name": "Bakerville",
		"mds_collivery_suburb_id": "5923",
		"mds_collivery_town_id": "12416",
		"mds_collivery_town_latitude": "-25.983333",
		"mds_collivery_town_longitude": "26.083333"
	},
	{
		"locality_id": "112",
		"locality_name": "Balfour",
		"locality_long_name": "CBD, Balfour",
		"suburb_name": "CBD",
		"town_name": "Balfour",
		"postal_code": "2410",
		"province_short_code": "MP",
		"province": "Mpumalanga",
		"longitude": "28.591",
		"latitude": "-26.6663",
		"mds_collivery_suburb_name": "CBD",
		"mds_collivery_town_name": "Balfour",
		"mds_collivery_suburb_id": "4345",
		"mds_collivery_town_id": "37",
		"mds_collivery_town_latitude": "-26.653651",
		"mds_collivery_town_longitude": "28.591470"
	},
	{
		"locality_id": "113",
		"locality_name": "Balfour, Eastern Cape",
		"locality_long_name": "CBD, Balfour, Eastern Cape",
		"suburb_name": "CBD",
		"town_name": "Balfour, Eastern Cape",
		"postal_code": "0000",
		"province_short_code": "EC",
		"province": "Eastern Cape",
		"longitude": "26.6736",
		"latitude": "-32.5415",
		"mds_collivery_suburb_name": "CBD",
		"mds_collivery_town_name": "Balfour, Eastern Cape",
		"mds_collivery_suburb_id": "5411",
		"mds_collivery_town_id": "10445",
		"mds_collivery_town_latitude": "-32.546429",
		"mds_collivery_town_longitude": "26.675969"
	},
	{
		"locality_id": "114",
		"locality_name": "Balgowan",
		"locality_long_name": "CBD, Balgowan",
		"suburb_name": "CBD",
		"town_name": "Balgowan",
		"postal_code": "3275",
		"province_short_code": "KZN",
		"province": "KwaZulu-Natal",
		"longitude": "30.033701",
		"latitude": "-29.3993",
		"mds_collivery_suburb_name": "CBD",
		"mds_collivery_town_name": "Balgowan",
		"mds_collivery_suburb_id": "3989",
		"mds_collivery_town_id": "29",
		"mds_collivery_town_latitude": "-29.385204",
		"mds_collivery_town_longitude": "30.037340"
	},
	{
		"locality_id": "115",
		"locality_name": "CBD",
		"locality_long_name": "CBD, Ballito",
		"suburb_name": "CBD",
		"town_name": "Ballito",
		"postal_code": "4420",
		"province_short_code": "KZN",
		"province": "KwaZulu-Natal",
		"longitude": "31.2159",
		"latitude": "-29.535",
		"mds_collivery_suburb_name": "CBD",
		"mds_collivery_town_name": "Ballito",
		"mds_collivery_suburb_id": "3985",
		"mds_collivery_town_id": "24",
		"mds_collivery_town_latitude": "-29.437578",
		"mds_collivery_town_longitude": "31.222571"
	},
	{
		"locality_id": "116",
		"locality_name": "Compensation",
		"locality_long_name": "Compensation, Ballito",
		"suburb_name": "Compensation",
		"town_name": "Ballito",
		"postal_code": "4399",
		"province_short_code": "KZN",
		"province": "KwaZulu-Natal",
		"longitude": "31.1913",
		"latitude": "-29.5099",
		"mds_collivery_suburb_name": "Compensation",
		"mds_collivery_town_name": "Ballito",
		"mds_collivery_suburb_id": "5737",
		"mds_collivery_town_id": "24",
		"mds_collivery_town_latitude": "-29.437578",
		"mds_collivery_town_longitude": "31.222571"
	},
	{
		"locality_id": "117",
		"locality_name": "Shakas Head",
		"locality_long_name": "Shakas Head, Ballito",
		"suburb_name": "Shakas Head",
		"town_name": "Ballito",
		"postal_code": "4381",
		"province_short_code": "KZN",
		"province": "KwaZulu-Natal",
		"longitude": "31.206828",
		"latitude": "-29.500386",
		"mds_collivery_suburb_name": "Shakas Head",
		"mds_collivery_town_name": "Ballito",
		"mds_collivery_suburb_id": "6136",
		"mds_collivery_town_id": "24",
		"mds_collivery_town_latitude": "-29.437578",
		"mds_collivery_town_longitude": "31.222571"
	},
	{
		"locality_id": "118",
		"locality_name": "Shakas Rock",
		"locality_long_name": "Shakas Rock, Ballito",
		"suburb_name": "Shakas Rock",
		"town_name": "Ballito",
		"postal_code": "4399",
		"province_short_code": "KZN",
		"province": "KwaZulu-Natal",
		"longitude": "31.230556",
		"latitude": "-29.513611",
		"mds_collivery_suburb_name": "Shakas Rock",
		"mds_collivery_town_name": "Ballito",
		"mds_collivery_suburb_id": "5937",
		"mds_collivery_town_id": "24",
		"mds_collivery_town_latitude": "-29.437578",
		"mds_collivery_town_longitude": "31.222571"
	},
	{
		"locality_id": "119",
		"locality_name": "Sheffield Beach",
		"locality_long_name": "Sheffield Beach, Ballito",
		"suburb_name": "Sheffield Beach",
		"town_name": "Ballito",
		"postal_code": "4420",
		"province_short_code": "KZN",
		"province": "KwaZulu-Natal",
		"longitude": "31.2526",
		"latitude": "-29.4859",
		"mds_collivery_suburb_name": "Sheffield Beach",
		"mds_collivery_town_name": "Ballito",
		"mds_collivery_suburb_id": "5246",
		"mds_collivery_town_id": "24",
		"mds_collivery_town_latitude": "-29.437578",
		"mds_collivery_town_longitude": "31.222571"
	},
	{
		"locality_id": "120",
		"locality_name": "Balmoral",
		"locality_long_name": "CBD, Balmoral",
		"suburb_name": "CBD",
		"town_name": "Balmoral",
		"postal_code": "0000",
		"province_short_code": "MP",
		"province": "Mpumalanga",
		"longitude": "28.966949",
		"latitude": "-25.866561",
		"mds_collivery_suburb_name": "CBD",
		"mds_collivery_town_name": "Balmoral",
		"mds_collivery_suburb_id": "5889",
		"mds_collivery_town_id": "12367",
		"mds_collivery_town_latitude": "-25.866667",
		"mds_collivery_town_longitude": "28.966667"
	},
	{
		"locality_id": "121",
		"locality_name": "Baltimore",
		"locality_long_name": "CBD, Baltimore",
		"suburb_name": "CBD",
		"town_name": "Baltimore",
		"postal_code": "0619",
		"province_short_code": "LP",
		"province": "Limpopo",
		"longitude": "28.4315",
		"latitude": "-23.278",
		"mds_collivery_suburb_name": "CBD",
		"mds_collivery_town_name": "Baltimore",
		"mds_collivery_suburb_id": "5734",
		"mds_collivery_town_id": "11945",
		"mds_collivery_town_latitude": "-23.278000",
		"mds_collivery_town_longitude": "28.431471"
	},
	{
		"locality_id": "122",
		"locality_name": "Banana Beach",
		"locality_long_name": "CBD, Banana Beach",
		"suburb_name": "CBD",
		"town_name": "Banana Beach",
		"postal_code": "4230",
		"province_short_code": "KZN",
		"province": "KwaZulu-Natal",
		"longitude": "30.513599",
		"latitude": "-30.6614",
		"mds_collivery_suburb_name": "CBD",
		"mds_collivery_town_name": "Banana Beach",
		"mds_collivery_suburb_id": "4691",
		"mds_collivery_town_id": "747",
		"mds_collivery_town_latitude": "-30.659996",
		"mds_collivery_town_longitude": "30.516134"
	},
	{
		"locality_id": "123",
		"locality_name": "Bandalierskop",
		"locality_long_name": "CBD, Bandalierskop",
		"suburb_name": "CBD",
		"town_name": "Bandalierskop",
		"postal_code": "0800",
		"province_short_code": "LP",
		"province": "Limpopo",
		"longitude": "29.803301",
		"latitude": "-23.3181",
		"mds_collivery_suburb_name": "CBD",
		"mds_collivery_town_name": "Bandalierskop",
		"mds_collivery_suburb_id": "4965",
		"mds_collivery_town_id": "903",
		"mds_collivery_town_latitude": "-23.321030",
		"mds_collivery_town_longitude": "29.806141"
	},
	{
		"locality_id": "124",
		"locality_name": "Bapong",
		"locality_long_name": "CBD, Bapong",
		"suburb_name": "CBD",
		"town_name": "Bapong",
		"postal_code": "0269",
		"province_short_code": "NW",
		"province": "North West",
		"longitude": "27.671278",
		"latitude": "-25.717481",
		"mds_collivery_suburb_name": "CBD",
		"mds_collivery_town_name": "Bapong",
		"mds_collivery_suburb_id": "5987",
		"mds_collivery_town_id": "12538",
		"mds_collivery_town_latitude": "-25.716808",
		"mds_collivery_town_longitude": "27.672819"
	},
	{
		"locality_id": "125",
		"locality_name": "Bapsfontein",
		"locality_long_name": "CBD, Bapsfontein",
		"suburb_name": "CBD",
		"town_name": "Bapsfontein",
		"postal_code": "1510",
		"province_short_code": "GP",
		"province": "Gauteng",
		"longitude": "28.4251",
		"latitude": "-26.003099",
		"mds_collivery_suburb_name": "CBD",
		"mds_collivery_town_name": "Bapsfontein",
		"mds_collivery_suburb_id": "4090",
		"mds_collivery_town_id": "414",
		"mds_collivery_town_latitude": "-26.005031",
		"mds_collivery_town_longitude": "28.426678"
	},
	{
		"locality_id": "126",
		"locality_name": "Barberspan",
		"locality_long_name": "CBD, Barberspan",
		"suburb_name": "CBD",
		"town_name": "Barberspan",
		"postal_code": "2765",
		"province_short_code": "NW",
		"province": "North West",
		"longitude": "25.5513",
		"latitude": "-26.6071",
		"mds_collivery_suburb_name": "CBD",
		"mds_collivery_town_name": "Barberspan",
		"mds_collivery_suburb_id": "5004",
		"mds_collivery_town_id": "941",
		"mds_collivery_town_latitude": "-26.590675",
		"mds_collivery_town_longitude": "25.586128"
	},
	{
		"locality_id": "127",
		"locality_name": "Barberton",
		"locality_long_name": "CBD, Barberton",
		"suburb_name": "CBD",
		"town_name": "Barberton",
		"postal_code": "1309",
		"province_short_code": "MP",
		"province": "Mpumalanga",
		"longitude": "31.0485",
		"latitude": "-25.792299",
		"mds_collivery_suburb_name": "CBD",
		"mds_collivery_town_name": "Barberton",
		"mds_collivery_suburb_id": "4258",
		"mds_collivery_town_id": "26",
		"mds_collivery_town_latitude": "-25.775226",
		"mds_collivery_town_longitude": "31.044977"
	},
	{
		"locality_id": "128",
		"locality_name": "Barkly East",
		"locality_long_name": "CBD, Barkly East",
		"suburb_name": "CBD",
		"town_name": "Barkly East",
		"postal_code": "9786",
		"province_short_code": "EC",
		"province": "Eastern Cape",
		"longitude": "27.5912",
		"latitude": "-30.97107",
		"mds_collivery_suburb_name": "CBD",
		"mds_collivery_town_name": "Barkly East",
		"mds_collivery_suburb_id": "4563",
		"mds_collivery_town_id": "669",
		"mds_collivery_town_latitude": "-30.969074",
		"mds_collivery_town_longitude": "27.590671"
	},
	{
		"locality_id": "129",
		"locality_name": "Barkly West",
		"locality_long_name": "CBD, Barkly West",
		"suburb_name": "CBD",
		"town_name": "Barkly West",
		"postal_code": "8375",
		"province_short_code": "NC",
		"province": "Northern Cape",
		"longitude": "24.5317",
		"latitude": "-28.5306",
		"mds_collivery_suburb_name": "CBD",
		"mds_collivery_town_name": "Barkly West",
		"mds_collivery_suburb_id": "4026",
		"mds_collivery_town_id": "376",
		"mds_collivery_town_latitude": "-28.536737",
		"mds_collivery_town_longitude": "24.519764"
	},
	{
		"locality_id": "130",
		"locality_name": "Barrydale",
		"locality_long_name": "CBD, Barrydale",
		"suburb_name": "CBD",
		"town_name": "Barrydale",
		"postal_code": "6750",
		"province_short_code": "WC",
		"province": "Western Cape",
		"longitude": "20.7167",
		"latitude": "-33.908401",
		"mds_collivery_suburb_name": "CBD",
		"mds_collivery_town_name": "Barrydale",
		"mds_collivery_suburb_id": "4652",
		"mds_collivery_town_id": "725",
		"mds_collivery_town_latitude": "-33.907609",
		"mds_collivery_town_longitude": "20.718206"
	},
	{
		"locality_id": "131",
		"locality_name": "Bashewa AH",
		"locality_long_name": "CBD, Bashewa AH",
		"suburb_name": "CBD",
		"town_name": "Bashewa AH",
		"postal_code": "0000",
		"province_short_code": "GP",
		"province": "Gauteng",
		"longitude": "28.4222",
		"latitude": "-25.9182",
		"mds_collivery_suburb_name": "CBD",
		"mds_collivery_town_name": "Bashewa AH",
		"mds_collivery_suburb_id": "5555",
		"mds_collivery_town_id": "11615",
		"mds_collivery_town_latitude": "-25.918191",
		"mds_collivery_town_longitude": "28.422152"
	},
	{
		"locality_id": "132",
		"locality_name": "Batho-Batho",
		"locality_long_name": "CBD, Batho-Batho",
		"suburb_name": "CBD",
		"town_name": "Batho-Batho",
		"postal_code": "2716",
		"province_short_code": "NW",
		"province": "North West",
		"longitude": "25.4667",
		"latitude": "-26.2",
		"mds_collivery_suburb_name": "CBD",
		"mds_collivery_town_name": "Batho-Batho",
		"mds_collivery_suburb_id": "5616",
		"mds_collivery_town_id": "11690",
		"mds_collivery_town_latitude": "-26.217736",
		"mds_collivery_town_longitude": "25.476317"
	},
	{
		"locality_id": "133",
		"locality_name": "Bathurst",
		"locality_long_name": "CBD, Bathurst",
		"suburb_name": "CBD",
		"town_name": "Bathurst",
		"postal_code": "6166",
		"province_short_code": "EC",
		"province": "Eastern Cape",
		"longitude": "26.8435",
		"latitude": "-33.504799",
		"mds_collivery_suburb_name": "CBD",
		"mds_collivery_town_name": "Bathurst",
		"mds_collivery_suburb_id": "4473",
		"mds_collivery_town_id": "27",
		"mds_collivery_town_latitude": "-33.503773",
		"mds_collivery_town_longitude": "26.824063"
	},
	{
		"locality_id": "134",
		"locality_name": "Bazley Beach",
		"locality_long_name": "CBD, Bazley Beach",
		"suburb_name": "CBD",
		"town_name": "Bazley Beach",
		"postal_code": "4220",
		"province_short_code": "KZN",
		"province": "KwaZulu-Natal",
		"longitude": "30.662001",
		"latitude": "-30.440901",
		"mds_collivery_suburb_name": "CBD",
		"mds_collivery_town_name": "Bazley Beach",
		"mds_collivery_suburb_id": "4944",
		"mds_collivery_town_id": "898",
		"mds_collivery_town_latitude": "-30.445298",
		"mds_collivery_town_longitude": "30.658816"
	},
	{
		"locality_id": "135",
		"locality_name": "Beaufort West",
		"locality_long_name": "CBD, Beaufort West",
		"suburb_name": "CBD",
		"town_name": "Beaufort West",
		"postal_code": "6970",
		"province_short_code": "WC",
		"province": "Western Cape",
		"longitude": "22.580299",
		"latitude": "-32.355301",
		"mds_collivery_suburb_name": "CBD",
		"mds_collivery_town_name": "Beaufort West",
		"mds_collivery_suburb_id": "4348",
		"mds_collivery_town_id": "520",
		"mds_collivery_town_latitude": "-32.352860",
		"mds_collivery_town_longitude": "22.584107"
	},
	{
		"locality_id": "136",
		"locality_name": "Bechtelarshire",
		"locality_long_name": "North Kendrick, Bechtelarshire",
		"suburb_name": "North Kendrick",
		"town_name": "Bechtelarshire",
		"postal_code": "0000",
		"province_short_code": "KZN",
		"province": "KwaZulu-Natal",
		"longitude": "138.391092",
		"latitude": "0.46838",
		"mds_collivery_suburb_name": "North Kendrick",
		"mds_collivery_town_name": "Bechtelarshire",
		"mds_collivery_suburb_id": "6342",
		"mds_collivery_town_id": "13236",
		"mds_collivery_town_latitude": "69.802946",
		"mds_collivery_town_longitude": "58.033972"
	},
	{
		"locality_id": "137",
		"locality_name": "Bedford",
		"locality_long_name": "CBD, Bedford",
		"suburb_name": "CBD",
		"town_name": "Bedford",
		"postal_code": "5780",
		"province_short_code": "EC",
		"province": "Eastern Cape",
		"longitude": "26.0835",
		"latitude": "-32.682098",
		"mds_collivery_suburb_name": "CBD",
		"mds_collivery_town_name": "Bedford",
		"mds_collivery_suburb_id": "4341",
		"mds_collivery_town_id": "30",
		"mds_collivery_town_latitude": "-32.687881",
		"mds_collivery_town_longitude": "26.106399"
	},
	{
		"locality_id": "138",
		"locality_name": "Beeshoek",
		"locality_long_name": "CBD, Beeshoek",
		"suburb_name": "CBD",
		"town_name": "Beeshoek",
		"postal_code": "8423",
		"province_short_code": "NC",
		"province": "Northern Cape",
		"longitude": "22.9935",
		"latitude": "-28.2918",
		"mds_collivery_suburb_name": "CBD",
		"mds_collivery_town_name": "Beeshoek",
		"mds_collivery_suburb_id": "5431",
		"mds_collivery_town_id": "10602",
		"mds_collivery_town_latitude": "-28.237854",
		"mds_collivery_town_longitude": "23.013113"
	},
	{
		"locality_id": "139",
		"locality_name": "Beestekraal",
		"locality_long_name": "CBD, Beestekraal",
		"suburb_name": "CBD",
		"town_name": "Beestekraal",
		"postal_code": "0255",
		"province_short_code": "NW",
		"province": "North West",
		"longitude": "27.569",
		"latitude": "-25.380699",
		"mds_collivery_suburb_name": "CBD",
		"mds_collivery_town_name": "Beestekraal",
		"mds_collivery_suburb_id": "4906",
		"mds_collivery_town_id": "871",
		"mds_collivery_town_latitude": "-25.599808",
		"mds_collivery_town_longitude": "27.404426"
	},
	{
		"locality_id": "140",
		"locality_name": "Beit Bridge",
		"locality_long_name": "CBD, Beit Bridge",
		"suburb_name": "CBD",
		"town_name": "Beit Bridge",
		"postal_code": "NPCF",
		"province_short_code": "NW",
		"province": "North West",
		"longitude": "29.986799",
		"latitude": "-22.2243",
		"mds_collivery_suburb_name": "CBD",
		"mds_collivery_town_name": "Beit Bridge",
		"mds_collivery_suburb_id": "4128",
		"mds_collivery_town_id": "433",
		"mds_collivery_town_latitude": "-22.224300",
		"mds_collivery_town_longitude": "29.986799"
	},
	{
		"locality_id": "141",
		"locality_name": "Bela Bela",
		"locality_long_name": "CBD, Bela Bela",
		"suburb_name": "CBD",
		"town_name": "Bela Bela",
		"postal_code": "0480",
		"province_short_code": "LP",
		"province": "Limpopo",
		"longitude": "28.293699",
		"latitude": "-24.881701",
		"mds_collivery_suburb_name": "CBD",
		"mds_collivery_town_name": "Bela Bela",
		"mds_collivery_suburb_id": "4008",
		"mds_collivery_town_id": "32",
		"mds_collivery_town_latitude": "-24.884447",
		"mds_collivery_town_longitude": "28.328711"
	},
	{
		"locality_id": "142",
		"locality_name": "Belfast",
		"locality_long_name": "CBD, Belfast",
		"suburb_name": "CBD",
		"town_name": "Belfast",
		"postal_code": "1100",
		"province_short_code": "MP",
		"province": "Mpumalanga",
		"longitude": "30.042601",
		"latitude": "-25.695101",
		"mds_collivery_suburb_name": "CBD",
		"mds_collivery_town_name": "Belfast",
		"mds_collivery_suburb_id": "4010",
		"mds_collivery_town_id": "31",
		"mds_collivery_town_latitude": "-25.682317",
		"mds_collivery_town_longitude": "30.037633"
	},
	{
		"locality_id": "143",
		"locality_name": "Actonville",
		"locality_long_name": "Actonville, Benoni",
		"suburb_name": "Actonville",
		"town_name": "Benoni",
		"postal_code": "1506",
		"province_short_code": "GP",
		"province": "Gauteng",
		"longitude": "28.304199",
		"latitude": "-26.2125",
		"mds_collivery_suburb_name": "Actonville",
		"mds_collivery_town_name": "Benoni",
		"mds_collivery_suburb_id": "6",
		"mds_collivery_town_id": "13302",
		"mds_collivery_town_latitude": "-26.148308",
		"mds_collivery_town_longitude": "28.344732"
	},
	{
		"locality_id": "144",
		"locality_name": "Airfield",
		"locality_long_name": "Airfield, Benoni",
		"suburb_name": "Airfield",
		"town_name": "Benoni",
		"postal_code": "1501",
		"province_short_code": "GP",
		"province": "Gauteng",
		"longitude": "28.3125",
		"latitude": "-26.170799",
		"mds_collivery_suburb_name": "Airfield",
		"mds_collivery_town_name": "Benoni",
		"mds_collivery_suburb_id": "16",
		"mds_collivery_town_id": "13302",
		"mds_collivery_town_latitude": "-26.148308",
		"mds_collivery_town_longitude": "28.344732"
	},
	{
		"locality_id": "145",
		"locality_name": "Alphen Park",
		"locality_long_name": "Alphen Park, Benoni",
		"suburb_name": "Alphen Park",
		"town_name": "Benoni",
		"postal_code": "1501",
		"province_short_code": "GP",
		"province": "Gauteng",
		"longitude": "28.2792",
		"latitude": "-26.170799",
		"mds_collivery_suburb_name": "Alphen Park",
		"mds_collivery_town_name": "Benoni",
		"mds_collivery_suburb_id": "36",
		"mds_collivery_town_id": "13302",
		"mds_collivery_town_latitude": "-26.148308",
		"mds_collivery_town_longitude": "28.344732"
	},
	{
		"locality_id": "146",
		"locality_name": "Apex",
		"locality_long_name": "Apex, Benoni",
		"suburb_name": "Apex",
		"town_name": "Benoni",
		"postal_code": "1540",
		"province_short_code": "GP",
		"province": "Gauteng",
		"longitude": "28.3375",
		"latitude": "-26.2125",
		"mds_collivery_suburb_name": "Apex",
		"mds_collivery_town_name": "Benoni",
		"mds_collivery_suburb_id": "61",
		"mds_collivery_town_id": "13302",
		"mds_collivery_town_latitude": "-26.148308",
		"mds_collivery_town_longitude": "28.344732"
	},
	{
		"locality_id": "147",
		"locality_name": "Atlasville",
		"locality_long_name": "Atlasville, Benoni",
		"suburb_name": "Atlasville",
		"town_name": "Benoni",
		"postal_code": "1459",
		"province_short_code": "GP",
		"province": "Gauteng",
		"longitude": "28.2875",
		"latitude": "-26.1458",
		"mds_collivery_suburb_name": "Atlasville",
		"mds_collivery_town_name": "Benoni",
		"mds_collivery_suburb_id": "78",
		"mds_collivery_town_id": "13302",
		"mds_collivery_town_latitude": "-26.148308",
		"mds_collivery_town_longitude": "28.344732"
	},
	{
		"locality_id": "148",
		"locality_name": "Benoni AH",
		"locality_long_name": "Benoni AH, Benoni",
		"suburb_name": "Benoni AH",
		"town_name": "Benoni",
		"postal_code": "1501",
		"province_short_code": "GP",
		"province": "Gauteng",
		"longitude": "28.3375",
		"latitude": "-26.0875",
		"mds_collivery_suburb_name": "Benoni AH",
		"mds_collivery_town_name": "Benoni",
		"mds_collivery_suburb_id": "147",
		"mds_collivery_town_id": "13302",
		"mds_collivery_town_latitude": "-26.148308",
		"mds_collivery_town_longitude": "28.344732"
	},
	{
		"locality_id": "149",
		"locality_name": "Benoni East AH",
		"locality_long_name": "Benoni East AH, Benoni",
		"suburb_name": "Benoni East AH",
		"town_name": "Benoni",
		"postal_code": "1513",
		"province_short_code": "GP",
		"province": "Gauteng",
		"longitude": "28.38929",
		"latitude": "-26.138087",
		"mds_collivery_suburb_name": "Benoni East AH",
		"mds_collivery_town_name": "Benoni",
		"mds_collivery_suburb_id": "6426",
		"mds_collivery_town_id": "13302",
		"mds_collivery_town_latitude": "-26.148308",
		"mds_collivery_town_longitude": "28.344732"
	},
	{
		"locality_id": "150",
		"locality_name": "Benoni North AH",
		"locality_long_name": "Benoni North AH, Benoni",
		"suburb_name": "Benoni North AH",
		"town_name": "Benoni",
		"postal_code": "1509",
		"province_short_code": "GP",
		"province": "Gauteng",
		"longitude": "28.304199",
		"latitude": "-26.1292",
		"mds_collivery_suburb_name": "Benoni North AH",
		"mds_collivery_town_name": "Benoni",
		"mds_collivery_suburb_id": "150",
		"mds_collivery_town_id": "13302",
		"mds_collivery_town_latitude": "-26.148308",
		"mds_collivery_town_longitude": "28.344732"
	},
	{
		"locality_id": "151",
		"locality_name": "Benoni Orchards",
		"locality_long_name": "Benoni Orchards, Benoni",
		"suburb_name": "Benoni Orchards",
		"town_name": "Benoni",
		"postal_code": "1501",
		"province_short_code": "GP",
		"province": "Gauteng",
		"longitude": "28.350578",
		"latitude": "-26.113239",
		"mds_collivery_suburb_name": "Benoni Orchards",
		"mds_collivery_town_name": "Benoni",
		"mds_collivery_suburb_id": "6424",
		"mds_collivery_town_id": "13302",
		"mds_collivery_town_latitude": "-26.148308",
		"mds_collivery_town_longitude": "28.344732"
	},
	{
		"locality_id": "152",
		"locality_name": "Benoni South",
		"locality_long_name": "Benoni South, Benoni",
		"suburb_name": "Benoni South",
		"town_name": "Benoni",
		"postal_code": "1501",
		"province_short_code": "GP",
		"province": "Gauteng",
		"longitude": "28.304199",
		"latitude": "-26.204201",
		"mds_collivery_suburb_name": "Benoni South",
		"mds_collivery_town_name": "Benoni",
		"mds_collivery_suburb_id": "153",
		"mds_collivery_town_id": "13302",
		"mds_collivery_town_latitude": "-26.148308",
		"mds_collivery_town_longitude": "28.344732"
	},
	{
		"locality_id": "153",
		"locality_name": "Benoni Western",
		"locality_long_name": "Benoni Western, Benoni",
		"suburb_name": "Benoni Western",
		"town_name": "Benoni",
		"postal_code": "1501",
		"province_short_code": "GP",
		"province": "Gauteng",
		"longitude": "28.298704",
		"latitude": "-26.192569",
		"mds_collivery_suburb_name": "Benoni Western",
		"mds_collivery_town_name": "Benoni",
		"mds_collivery_suburb_id": "6427",
		"mds_collivery_town_id": "13302",
		"mds_collivery_town_latitude": "-26.148308",
		"mds_collivery_town_longitude": "28.344732"
	},
	{
		"locality_id": "154",
		"locality_name": "Boat Lake Village",
		"locality_long_name": "Boat Lake Village, Benoni",
		"suburb_name": "Boat Lake Village",
		"town_name": "Benoni",
		"postal_code": "1501",
		"province_short_code": "GP",
		"province": "Gauteng",
		"longitude": "28.336698",
		"latitude": "-26.129041",
		"mds_collivery_suburb_name": "Boat Lake Village",
		"mds_collivery_town_name": "Benoni",
		"mds_collivery_suburb_id": "6423",
		"mds_collivery_town_id": "13302",
		"mds_collivery_town_latitude": "-26.148308",
		"mds_collivery_town_longitude": "28.344732"
	},
	{
		"locality_id": "155",
		"locality_name": "Brentwood",
		"locality_long_name": "Brentwood, Benoni",
		"suburb_name": "Brentwood",
		"town_name": "Benoni",
		"postal_code": "1501",
		"province_short_code": "GP",
		"province": "Gauteng",
		"longitude": "28.298704",
		"latitude": "-26.142545",
		"mds_collivery_suburb_name": "Brentwood",
		"mds_collivery_town_name": "Benoni",
		"mds_collivery_suburb_id": "6422",
		"mds_collivery_town_id": "13302",
		"mds_collivery_town_latitude": "-26.148308",
		"mds_collivery_town_longitude": "28.344732"
	},
	{
		"locality_id": "156",
		"locality_name": "Brentwood Park",
		"locality_long_name": "Brentwood Park, Benoni",
		"suburb_name": "Brentwood Park",
		"town_name": "Benoni",
		"postal_code": "1505",
		"province_short_code": "GP",
		"province": "Gauteng",
		"longitude": "28.2792",
		"latitude": "-26.1292",
		"mds_collivery_suburb_name": "Brentwood Park",
		"mds_collivery_town_name": "Benoni",
		"mds_collivery_suburb_id": "2451",
		"mds_collivery_town_id": "13302",
		"mds_collivery_town_latitude": "-26.148308",
		"mds_collivery_town_longitude": "28.344732"
	},
	{
		"locality_id": "157",
		"locality_name": "Brentwood Park AH",
		"locality_long_name": "Brentwood Park AH, Benoni",
		"suburb_name": "Brentwood Park AH",
		"town_name": "Benoni",
		"postal_code": "1501",
		"province_short_code": "GP",
		"province": "Gauteng",
		"longitude": "28.2792",
		"latitude": "-26.112499",
		"mds_collivery_suburb_name": "Brentwood Park AH",
		"mds_collivery_town_name": "Benoni",
		"mds_collivery_suburb_id": "239",
		"mds_collivery_town_id": "13302",
		"mds_collivery_town_latitude": "-26.148308",
		"mds_collivery_town_longitude": "28.344732"
	},
	{
		"locality_id": "158",
		"locality_name": "CBD",
		"locality_long_name": "CBD, Benoni",
		"suburb_name": "CBD",
		"town_name": "Benoni",
		"postal_code": "1501",
		"province_short_code": "GP",
		"province": "Gauteng",
		"longitude": "28.344732",
		"latitude": "-26.148308",
		"mds_collivery_suburb_name": "CBD",
		"mds_collivery_town_name": "Benoni",
		"mds_collivery_suburb_id": "6399",
		"mds_collivery_town_id": "13302",
		"mds_collivery_town_latitude": "-26.148308",
		"mds_collivery_town_longitude": "28.344732"
	},
	{
		"locality_id": "159",
		"locality_name": "Chris Hani Park",
		"locality_long_name": "Chris Hani Park, Benoni",
		"suburb_name": "Chris Hani Park",
		"town_name": "Benoni",
		"postal_code": "1559",
		"province_short_code": "GP",
		"province": "Gauteng",
		"longitude": "28.4375",
		"latitude": "-26.137501",
		"mds_collivery_suburb_name": "Chris Hani Park",
		"mds_collivery_town_name": "Benoni",
		"mds_collivery_suburb_id": "330",
		"mds_collivery_town_id": "13302",
		"mds_collivery_town_latitude": "-26.148308",
		"mds_collivery_town_longitude": "28.344732"
	},
	{
		"locality_id": "160",
		"locality_name": "Cloverdene",
		"locality_long_name": "Cloverdene, Benoni",
		"suburb_name": "Cloverdene",
		"town_name": "Benoni",
		"postal_code": "1513",
		"province_short_code": "GP",
		"province": "Gauteng",
		"longitude": "28.387501",
		"latitude": "-26.1542",
		"mds_collivery_suburb_name": "Cloverdene",
		"mds_collivery_town_name": "Benoni",
		"mds_collivery_suburb_id": "351",
		"mds_collivery_town_id": "13302",
		"mds_collivery_town_latitude": "-26.148308",
		"mds_collivery_town_longitude": "28.344732"
	},
	{
		"locality_id": "161",
		"locality_name": "Country View",
		"locality_long_name": "Country View, Benoni",
		"suburb_name": "Country View",
		"town_name": "Benoni",
		"postal_code": "1501",
		"province_short_code": "GP",
		"province": "Gauteng",
		"longitude": "28.33889",
		"latitude": "-26.121139",
		"mds_collivery_suburb_name": "Country View",
		"mds_collivery_town_name": "Benoni",
		"mds_collivery_suburb_id": "6421",
		"mds_collivery_town_id": "13302",
		"mds_collivery_town_latitude": "-26.148308",
		"mds_collivery_town_longitude": "28.344732"
	},
	{
		"locality_id": "162",
		"locality_name": "Crystal Park",
		"locality_long_name": "Crystal Park, Benoni",
		"suburb_name": "Crystal Park",
		"town_name": "Benoni",
		"postal_code": "1515",
		"province_short_code": "GP",
		"province": "Gauteng",
		"longitude": "28.3708",
		"latitude": "-26.1208",
		"mds_collivery_suburb_name": "Crystal Park",
		"mds_collivery_town_name": "Benoni",
		"mds_collivery_suburb_id": "398",
		"mds_collivery_town_id": "13302",
		"mds_collivery_town_latitude": "-26.148308",
		"mds_collivery_town_longitude": "28.344732"
	},
	{
		"locality_id": "163",
		"locality_name": "Daveyton",
		"locality_long_name": "Daveyton, Benoni",
		"suburb_name": "Daveyton",
		"town_name": "Benoni",
		"postal_code": "1507",
		"province_short_code": "GP",
		"province": "Gauteng",
		"longitude": "28.422152",
		"latitude": "-26.145245",
		"mds_collivery_suburb_name": "Daveyton",
		"mds_collivery_town_name": "Benoni",
		"mds_collivery_suburb_id": "421",
		"mds_collivery_town_id": "13302",
		"mds_collivery_town_latitude": "-26.148308",
		"mds_collivery_town_longitude": "28.344732"
	},
	{
		"locality_id": "164",
		"locality_name": "Dewald Hattingh Park",
		"locality_long_name": "Dewald Hattingh Park, Benoni",
		"suburb_name": "Dewald Hattingh Park",
		"town_name": "Benoni",
		"postal_code": "1501",
		"province_short_code": "GP",
		"province": "Gauteng",
		"longitude": "28.3375",
		"latitude": "-26.204201",
		"mds_collivery_suburb_name": "Dewald Hattingh Park",
		"mds_collivery_town_name": "Benoni",
		"mds_collivery_suburb_id": "456",
		"mds_collivery_town_id": "13302",
		"mds_collivery_town_latitude": "-26.148308",
		"mds_collivery_town_longitude": "28.344732"
	},
	{
		"locality_id": "165",
		"locality_name": "Ebotse Golf & Country Estate",
		"locality_long_name": "Ebotse Golf & Country Estate, Benoni",
		"suburb_name": "Ebotse Golf & Country Estate",
		"town_name": "Benoni",
		"postal_code": "1513",
		"province_short_code": "GP",
		"province": "Gauteng",
		"longitude": "28.350578",
		"latitude": "-26.151087",
		"mds_collivery_suburb_name": "Ebotse Golf & Country Estate",
		"mds_collivery_town_name": "Benoni",
		"mds_collivery_suburb_id": "6420",
		"mds_collivery_town_id": "13302",
		"mds_collivery_town_latitude": "-26.148308",
		"mds_collivery_town_longitude": "28.344732"
	},
	{
		"locality_id": "166",
		"locality_name": "Etwatwa",
		"locality_long_name": "Etwatwa, Benoni",
		"suburb_name": "Etwatwa",
		"town_name": "Benoni",
		"postal_code": "1519",
		"province_short_code": "GP",
		"province": "Gauteng",
		"longitude": "28.454277",
		"latitude": "-26.124856",
		"mds_collivery_suburb_name": "Etwatwa",
		"mds_collivery_town_name": "Benoni",
		"mds_collivery_suburb_id": "6401",
		"mds_collivery_town_id": "13302",
		"mds_collivery_town_latitude": "-26.148308",
		"mds_collivery_town_longitude": "28.344732"
	},
	{
		"locality_id": "167",
		"locality_name": "Fairleads",
		"locality_long_name": "Fairleads, Benoni",
		"suburb_name": "Fairleads",
		"town_name": "Benoni",
		"postal_code": "1512",
		"province_short_code": "GP",
		"province": "Gauteng",
		"longitude": "28.354961",
		"latitude": "-26.119063",
		"mds_collivery_suburb_name": "Fairleads",
		"mds_collivery_town_name": "Benoni",
		"mds_collivery_suburb_id": "6402",
		"mds_collivery_town_id": "13302",
		"mds_collivery_town_latitude": "-26.148308",
		"mds_collivery_town_longitude": "28.344732"
	},
	{
		"locality_id": "168",
		"locality_name": "Farrarmere",
		"locality_long_name": "Farrarmere, Benoni",
		"suburb_name": "Farrarmere",
		"town_name": "Benoni",
		"postal_code": "1501",
		"province_short_code": "GP",
		"province": "Gauteng",
		"longitude": "28.300801",
		"latitude": "-26.16954",
		"mds_collivery_suburb_name": "Farrarmere",
		"mds_collivery_town_name": "Benoni",
		"mds_collivery_suburb_id": "2449",
		"mds_collivery_town_id": "13302",
		"mds_collivery_town_latitude": "-26.148308",
		"mds_collivery_town_longitude": "28.344732"
	},
	{
		"locality_id": "169",
		"locality_name": "Farrarmere Gardens",
		"locality_long_name": "Farrarmere Gardens, Benoni",
		"suburb_name": "Farrarmere Gardens",
		"town_name": "Benoni",
		"postal_code": "1501",
		"province_short_code": "GP",
		"province": "Gauteng",
		"longitude": "28.300166",
		"latitude": "-26.15981",
		"mds_collivery_suburb_name": "Farrarmere Gardens",
		"mds_collivery_town_name": "Benoni",
		"mds_collivery_suburb_id": "6400",
		"mds_collivery_town_id": "13302",
		"mds_collivery_town_latitude": "-26.148308",
		"mds_collivery_town_longitude": "28.344732"
	},
	{
		"locality_id": "170",
		"locality_name": "Goedeburg",
		"locality_long_name": "Goedeburg, Benoni",
		"suburb_name": "Goedeburg",
		"town_name": "Benoni",
		"postal_code": "1501",
		"province_short_code": "GP",
		"province": "Gauteng",
		"longitude": "28.291397",
		"latitude": "-26.142749",
		"mds_collivery_suburb_name": "Goedeburg",
		"mds_collivery_town_name": "Benoni",
		"mds_collivery_suburb_id": "6403",
		"mds_collivery_town_id": "13302",
		"mds_collivery_town_latitude": "-26.148308",
		"mds_collivery_town_longitude": "28.344732"
	},
	{
		"locality_id": "171",
		"locality_name": "Gordons View",
		"locality_long_name": "Gordon's View, Benoni",
		"suburb_name": "Gordon's View",
		"town_name": "Benoni",
		"postal_code": "1513",
		"province_short_code": "GP",
		"province": "Gauteng",
		"longitude": "28.3958",
		"latitude": "-26.1042",
		"mds_collivery_suburb_name": "Gordon's View",
		"mds_collivery_town_name": "Benoni",
		"mds_collivery_suburb_id": "804",
		"mds_collivery_town_id": "13302",
		"mds_collivery_town_latitude": "-26.148308",
		"mds_collivery_town_longitude": "28.344732"
	},
	{
		"locality_id": "172",
		"locality_name": "Hillcrest",
		"locality_long_name": "Hillcrest, Benoni",
		"suburb_name": "Hillcrest",
		"town_name": "Benoni",
		"postal_code": "1501",
		"province_short_code": "GP",
		"province": "Gauteng",
		"longitude": "28.400245",
		"latitude": "-26.137772",
		"mds_collivery_suburb_name": "Hillcrest",
		"mds_collivery_town_name": "Benoni",
		"mds_collivery_suburb_id": "6668",
		"mds_collivery_town_id": "13302",
		"mds_collivery_town_latitude": "-26.148308",
		"mds_collivery_town_longitude": "28.344732"
	},
	{
		"locality_id": "173",
		"locality_name": "Hillcrest A.H.",
		"locality_long_name": "Hillcrest A.H., Benoni",
		"suburb_name": "Hillcrest A.H.",
		"town_name": "Benoni",
		"postal_code": "1501",
		"province_short_code": "GP",
		"province": "Gauteng",
		"longitude": "28.3958",
		"latitude": "-26.137501",
		"mds_collivery_suburb_name": "Hillcrest A.H.",
		"mds_collivery_town_name": "Benoni",
		"mds_collivery_suburb_id": "897",
		"mds_collivery_town_id": "13302",
		"mds_collivery_town_latitude": "-26.148308",
		"mds_collivery_town_longitude": "28.344732"
	},
	{
		"locality_id": "174",
		"locality_name": "Inglethorpe AH",
		"locality_long_name": "Inglethorpe AH, Benoni",
		"suburb_name": "Inglethorpe AH",
		"town_name": "Benoni",
		"postal_code": "1501",
		"province_short_code": "GP",
		"province": "Gauteng",
		"longitude": "28.383447",
		"latitude": "-26.121768",
		"mds_collivery_suburb_name": "Inglethorpe AH",
		"mds_collivery_town_name": "Benoni",
		"mds_collivery_suburb_id": "6419",
		"mds_collivery_town_id": "13302",
		"mds_collivery_town_latitude": "-26.148308",
		"mds_collivery_town_longitude": "28.344732"
	},
	{
		"locality_id": "175",
		"locality_name": "Jatniel",
		"locality_long_name": "Jatniel, Benoni",
		"suburb_name": "Jatniel",
		"town_name": "Benoni",
		"postal_code": "1509",
		"province_short_code": "GP",
		"province": "Gauteng",
		"longitude": "28.319894",
		"latitude": "-26.126539",
		"mds_collivery_suburb_name": "Jatniel",
		"mds_collivery_town_name": "Benoni",
		"mds_collivery_suburb_id": "6404",
		"mds_collivery_town_id": "13302",
		"mds_collivery_town_latitude": "-26.148308",
		"mds_collivery_town_longitude": "28.344732"
	},
	{
		"locality_id": "176",
		"locality_name": "Kilfenora",
		"locality_long_name": "Kilfenora, Benoni",
		"suburb_name": "Kilfenora",
		"town_name": "Benoni",
		"postal_code": "1501",
		"province_short_code": "GP",
		"province": "Gauteng",
		"longitude": "28.2875",
		"latitude": "-26.1875",
		"mds_collivery_suburb_name": "Kilfenora",
		"mds_collivery_town_name": "Benoni",
		"mds_collivery_suburb_id": "1055",
		"mds_collivery_town_id": "13302",
		"mds_collivery_town_latitude": "-26.148308",
		"mds_collivery_town_longitude": "28.344732"
	},
	{
		"locality_id": "177",
		"locality_name": "Kleinfontein AH",
		"locality_long_name": "Kleinfontein AH, Benoni",
		"suburb_name": "Kleinfontein AH",
		"town_name": "Benoni",
		"postal_code": "1525",
		"province_short_code": "GP",
		"province": "Gauteng",
		"longitude": "28.287012",
		"latitude": "-26.172077",
		"mds_collivery_suburb_name": "Kleinfontein AH",
		"mds_collivery_town_name": "Benoni",
		"mds_collivery_suburb_id": "6319",
		"mds_collivery_town_id": "13302",
		"mds_collivery_town_latitude": "-26.148308",
		"mds_collivery_town_longitude": "28.344732"
	},
	{
		"locality_id": "178",
		"locality_name": "Lakefield",
		"locality_long_name": "Lakefield, Benoni",
		"suburb_name": "Lakefield",
		"town_name": "Benoni",
		"postal_code": "1501",
		"province_short_code": "GP",
		"province": "Gauteng",
		"longitude": "28.286282",
		"latitude": "-26.183725",
		"mds_collivery_suburb_name": "Lakefield",
		"mds_collivery_town_name": "Benoni",
		"mds_collivery_suburb_id": "6405",
		"mds_collivery_town_id": "13302",
		"mds_collivery_town_latitude": "-26.148308",
		"mds_collivery_town_longitude": "28.344732"
	},
	{
		"locality_id": "179",
		"locality_name": "Lakeside",
		"locality_long_name": "Lakeside, Benoni",
		"suburb_name": "Lakeside",
		"town_name": "Benoni",
		"postal_code": "1501",
		"province_short_code": "GP",
		"province": "Gauteng",
		"longitude": "28.295781",
		"latitude": "-26.175617",
		"mds_collivery_suburb_name": "Lakeside",
		"mds_collivery_town_name": "Benoni",
		"mds_collivery_suburb_id": "6406",
		"mds_collivery_town_id": "13302",
		"mds_collivery_town_latitude": "-26.148308",
		"mds_collivery_town_longitude": "28.344732"
	},
	{
		"locality_id": "180",
		"locality_name": "Lilyvale AH",
		"locality_long_name": "Lilyvale AH, Benoni",
		"suburb_name": "Lilyvale AH",
		"town_name": "Benoni",
		"postal_code": "1513",
		"province_short_code": "GP",
		"province": "Gauteng",
		"longitude": "28.4125",
		"latitude": "-26.1042",
		"mds_collivery_suburb_name": "Lilyvale AH",
		"mds_collivery_town_name": "Benoni",
		"mds_collivery_suburb_id": "1184",
		"mds_collivery_town_id": "13302",
		"mds_collivery_town_latitude": "-26.148308",
		"mds_collivery_town_longitude": "28.344732"
	},
	{
		"locality_id": "181",
		"locality_name": "Linksview",
		"locality_long_name": "Linksview, Benoni",
		"suburb_name": "Linksview",
		"town_name": "Benoni",
		"postal_code": "1501",
		"province_short_code": "GP",
		"province": "Gauteng",
		"longitude": "28.295799",
		"latitude": "-26.1875",
		"mds_collivery_suburb_name": "Linksview",
		"mds_collivery_town_name": "Benoni",
		"mds_collivery_suburb_id": "1196",
		"mds_collivery_town_id": "13302",
		"mds_collivery_town_latitude": "-26.148308",
		"mds_collivery_town_longitude": "28.344732"
	},
	{
		"locality_id": "182",
		"locality_name": "Mackenzie Park",
		"locality_long_name": "Mackenzie Park, Benoni",
		"suburb_name": "Mackenzie Park",
		"town_name": "Benoni",
		"postal_code": "1501",
		"province_short_code": "GP",
		"province": "Gauteng",
		"longitude": "28.330123",
		"latitude": "-26.198705",
		"mds_collivery_suburb_name": "Mackenzie Park",
		"mds_collivery_town_name": "Benoni",
		"mds_collivery_suburb_id": "6407",
		"mds_collivery_town_id": "13302",
		"mds_collivery_town_latitude": "-26.148308",
		"mds_collivery_town_longitude": "28.344732"
	},